lat,lng,city_ascii,COUNTRY,id,"lat, lng",status
35.6897,139.6922,Tokyo,JAPAN,1392685764,"35.6897, 139.6922",OK
-6.2146,106.8451,Jakarta,INDONESIA,1360771077,"-6.2146, 106.8451",OK
28.66,77.23,Delhi,INDIA,1356872604,"28.6600, 77.2300",OK
18.9667,72.8333,Mumbai,INDIA,1356226629,"18.9667, 72.8333",OK
14.6,120.9833,Manila,PHILIPPINES,1608618140,"14.6000, 120.9833",OK
-23.5504,-46.6339,Sao Paulo,BRAZIL,1076532519,"-23.5504, -46.6339",OK
19.4333,-99.1333,Mexico City,MEXICO,1484247881,"19.4333, -99.1333",OK
23.1288,113.259,Guangzhou,CHINA,1156237133,"23.1288, 113.2590",OK
39.905,116.3914,Beijing,CHINA,1156228865,"39.9050, 116.3914",OK
40.6943,-73.9249,New York,UNITED STATES,1840034016,"40.6943, -73.9249",OK
55.7558,37.6178,Moscow,RUSSIA,1643318494,"55.7558, 37.6178",OK
13.75,100.5167,Bangkok,THAILAND,1764068610,"13.7500, 100.5167",OK
-34.5997,-58.3819,Buenos Aires,ARGENTINA,1032717330,"-34.5997, -58.3819",OK
23.7289,90.3944,Dhaka,BANGLADESH,1050529279,"23.7289, 90.3944",OK
6.45,3.4,Lagos,NIGERIA,1566593751,"6.4500, 3.4000",OK
41.01,28.9603,Istanbul,TURKEY,1792756324,"41.0100, 28.9603",OK
34.75,135.4601,Osaka,JAPAN,1392419823,"34.7500, 135.4601",OK
12.9699,77.598,Bangalore,INDIA,1356410365,"12.9699, 77.5980",OK
-22.9083,-43.1964,Rio de Janeiro,BRAZIL,1076887657,"-22.9083, -43.1964",OK
13.0825,80.275,Chennai,INDIA,1356374944,"13.0825, 80.2750",OK
30.66,104.0633,Chengdu,CHINA,1156421555,"30.6600, 104.0633",OK
48.8566,2.3522,Paris,FRANCE,1250015082,"48.8566, 2.3522",OK
51.5072,-0.1275,London,UNITED KINGDOM,1826645935,"51.5072, -0.1275",OK
-12.05,-77.0333,Lima,PERU,1604728603,"-12.0500, -77.0333",OK
4.6126,-74.0705,Bogota,COLOMBIA,1170483426,"4.6126, -74.0705",OK
35.1167,136.9333,Nagoya,JAPAN,1392407472,"35.1167, 136.9333",OK
41.8373,-87.6862,Chicago,UNITED STATES,1840000494,"41.8373, -87.6862",OK
3.1478,101.6953,Kuala Lumpur,MALAYSIA,1458988644,"3.1478, 101.6953",OK
21.0245,105.8412,Hanoi,VIETNAM,1704413791,"21.0245, 105.8412",OK
22.305,114.185,Hong Kong,HONG KONG,1344982653,"22.3050, 114.1850",OK
-33.45,-70.6667,Santiago,CHILE,1152554349,"-33.4500, -70.6667",OK
25.7839,-80.2102,Miami,UNITED STATES,1840015149,"25.7839, -80.2102",OK
40.4167,-3.7167,Madrid,SPAIN,1724616994,"40.4167, -3.7167",OK
32.7936,-96.7662,Dallas,UNITED STATES,1840019440,"32.7936, -96.7662",OK
-1.2864,36.8172,Nairobi,KENYA,1404000661,"-1.2864, 36.8172",OK
39.93,32.85,Ankara,TURKEY,1792572891,"39.9300, 32.8500",OK
29.7863,-95.3889,Houston,UNITED STATES,1840020925,"29.7863, -95.3889",OK
38.9047,-77.0163,Washington,UNITED STATES,1840006060,"38.9047, -77.0163",OK
59.95,30.3167,Saint Petersburg,RUSSIA,1643616350,"59.9500, 30.3167",OK
-33.865,151.2094,Sydney,AUSTRALIA,1036074917,"-33.8650, 151.2094",OK
20.6767,-103.3475,Guadalajara,MEXICO,1484950208,"20.6767, -103.3475",OK
-19.9281,-43.9419,Belo Horizonte,BRAZIL,1076967355,"-19.9281, -43.9419",OK
-37.8136,144.9631,Melbourne,AUSTRALIA,1036533631,"-37.8136, 144.9631",OK
-7.2458,112.7378,Surabaya,INDONESIA,1360484663,"-7.2458, 112.7378",OK
25.2667,110.2833,Guilin,CHINA,1156235364,"25.2667, 110.2833",OK
42.3188,-71.0846,Boston,UNITED STATES,1840000455,"42.3188, -71.0846",OK
41.3825,2.1769,Barcelona,SPAIN,1724594040,"41.3825, 2.1769",OK
-26.2044,28.0416,Johannesburg,SOUTH AFRICA,1710550792,"-26.2044, 28.0416",OK
38.4127,27.1384,Izmir,TURKEY,1792725579,"38.4127, 27.1384",OK
33.5722,-112.0891,Phoenix,UNITED STATES,1840020568,"33.5722, -112.0891",OK
31.95,35.9333,Amman,JORDAN,1400522593,"31.9500, 35.9333",OK
47.6211,-122.3244,Seattle,UNITED STATES,1840021117,"47.6211, -122.3244",OK
35.4333,139.6333,Yokohama,JAPAN,1392118339,"35.4333, 139.6333",OK
52.5167,13.3833,Berlin,GERMANY,1276451290,"52.5167, 13.3833",OK
37.7562,-122.443,San Francisco,UNITED STATES,1840021543,"37.7562, -122.4430",OK
45.5089,-73.5617,Montreal,CANADA,1124586170,"45.5089, -73.5617",OK
42.3834,-83.1024,Detroit,UNITED STATES,1840003971,"42.3834, -83.1024",OK
26.847,80.947,Lucknow,INDIA,1356891790,"26.8470, 80.9470",OK
-17.7892,-63.1975,Santa Cruz,BOLIVIA,1068129363,"-17.7892, -63.1975",OK
-15.7939,-47.8828,Brasilia,BRAZIL,1076144436,"-15.7939, -47.8828",OK
44.9635,-93.2678,Minneapolis,UNITED STATES,1840007830,"44.9635, -93.2678",OK
50.45,30.5236,Kyiv,UKRAINE,1804382913,"50.4500, 30.5236",OK
14.6333,121.0333,Quezon City,PHILIPPINES,1608974097,"14.6333, 121.0333",OK
40.1833,29.0667,Bursa,TURKEY,1792903330,"40.1833, 29.0667",OK
27.9942,-82.4451,Tampa,UNITED STATES,1840015982,"27.9942, -82.4451",OK
52.48,-1.9025,Birmingham,UNITED KINGDOM,1826423213,"52.4800, -1.9025",OK
-12.9708,-38.5108,Salvador,BRAZIL,1076923789,"-12.9708, -38.5108",OK
41.8931,12.4828,Rome,ITALY,1380382862,"41.8931, 12.4828",OK
-16.4942,-68.1475,La Paz,BOLIVIA,1068000064,"-16.4942, -68.1475",OK
24.15,120.6667,Taichung,TAIWAN,1158689622,"24.1500, 120.6667",OK
22.6167,120.3,Kaohsiung,TAIWAN,1158331334,"22.6167, 120.3000",OK
53.4794,-2.2453,Manchester,UNITED KINGDOM,1826246335,"53.4794, -2.2453",OK
25.0478,121.5319,Taipei,TAIWAN,1158881289,"25.0478, 121.5319",OK
22.335,91.8325,Chattogram,BANGLADESH,1050830722,"22.3350, 91.8325",OK
18.4764,-69.8933,Santo Domingo,DOMINICAN REPUBLIC,1214636202,"18.4764, -69.8933",OK
40.6501,-73.9496,Brooklyn,UNITED STATES,1840034030,"40.6501, -73.9496",OK
6.2447,-75.5748,Medellin,COLOMBIA,1170680389,"6.2447, -75.5748",OK
-27.4678,153.0281,Brisbane,AUSTRALIA,1036192929,"-27.4678, 153.0281",OK
25.2697,55.3094,Dubai,UNITED ARAB EMIRATES,1784736618,"25.2697, 55.3094",OK
3.44,-76.5197,Cali,COLOMBIA,1170417589,"3.4400, -76.5197",OK
-3.7275,-38.5275,Fortaleza,BRAZIL,1076567885,"-3.7275, -38.5275",OK
36.9081,30.6956,Antalya,TURKEY,1792988434,"36.9081, 30.6956",OK
5.6037,-0.187,Accra,GHANA,1288299415,"5.6037, -0.1870",OK
49.25,-123.1,Vancouver,CANADA,1124825478,"49.2500, -123.1000",OK
-6.1783,106.6319,Tangerang,INDONESIA,1360002844,"-6.1783, 106.6319",OK
37.8714,32.4847,Konya,TURKEY,1792014004,"37.8714, 32.4847",OK
40.7498,-73.7976,Queens,UNITED STATES,1840034002,"40.7498, -73.7976",OK
3.6667,98.6667,Medan,INDONESIA,1360543171,"3.6667, 98.6667",OK
11.5696,104.921,Phnom Penh,CAMBODIA,1116260534,"11.5696, 104.9210",OK
33.6,130.4167,Fukuoka,JAPAN,1392576294,"33.6000, 130.4167",OK
33.9381,-117.3948,Riverside,UNITED STATES,1840020551,"33.9381, -117.3948",OK
39.3051,-76.6144,Baltimore,UNITED STATES,1840001592,"39.3051, -76.6144",OK
36.2333,-115.2654,Las Vegas,UNITED STATES,1840020364,"36.2333, -115.2654",OK
6.6833,-1.6167,Kumasi,GHANA,1288181103,"6.6833, -1.6167",OK
45.5372,-122.65,Portland,UNITED STATES,1840019941,"45.5372, -122.6500",OK
-31.9522,115.8589,Perth,AUSTRALIA,1036178956,"-31.9522, 115.8589",OK
29.4658,-98.5253,San Antonio,UNITED STATES,1840022220,"29.4658, -98.5253",OK
37.0667,37.3833,Gaziantep,TURKEY,1792911843,"37.0667, 37.3833",OK
38.6358,-90.2451,St. Louis,UNITED STATES,1840001651,"38.6358, -90.2451",OK
-0.2186,-78.5097,Quito,ECUADOR,1218441993,"-0.2186, -78.5097",OK
53.9022,27.5618,Minsk,BELARUS,1112348503,"53.9022, 27.5618",OK
37.1583,38.7917,Sanliurfa,TURKEY,1792937570,"37.1583, 38.7917",OK
43.0621,141.3544,Sapporo,JAPAN,1392000195,"43.0621, 141.3544",OK
48.2083,16.3731,Vienna,AUSTRIA,1040261752,"48.2083, 16.3731",OK
53.7997,-1.5492,Leeds,UNITED KINGDOM,1826343963,"53.7997, -1.5492",OK
38.5667,-121.4683,Sacramento,UNITED STATES,1840021491,"38.5667, -121.4683",OK
22.9833,120.1833,Tainan,TAIWAN,1158061376,"22.9833, 120.1833",OK
44.4,26.0833,Bucharest,ROMANIA,1642414442,"44.4000, 26.0833",OK
23.25,77.4167,Bhopal,INDIA,1356734039,"23.2500, 77.4167",OK
-25.4297,-49.2719,Curitiba,BRAZIL,1076701712,"-25.4297, -49.2719",OK
53.55,10,Hamburg,GERMANY,1276041799,"53.5500, 10.0000",OK
36.8,34.6167,Mersin,TURKEY,1792520282,"36.8000, 34.6167",OK
35.0111,135.7669,Kyoto,JAPAN,1392622735,"35.0111, 135.7669",OK
52.2167,21.0333,Warsaw,POLAND,1616024847,"52.2167, 21.0333",OK
47.4983,19.0408,Budapest,HUNGARY,1348611435,"47.4983, 19.0408",OK
37.9108,40.2367,Diyarbakir,TURKEY,1792536241,"37.9108, 40.2367",OK
41.4767,-81.6804,Cleveland,UNITED STATES,1840000596,"41.4767, -81.6804",OK
40.4396,-79.9762,Pittsburgh,UNITED STATES,1840001254,"40.4396, -79.9762",OK
25.61,85.1414,Patna,INDIA,1356821429,"25.6100, 85.1414",OK
30.3004,-97.7522,Austin,UNITED STATES,1840019590,"30.3004, -97.7522",OK
0.3136,32.5811,Kampala,UGANDA,1800406299,"0.3136, 32.5811",OK
19.6097,-99.06,Ecatepec,MEXICO,1484003694,"19.6097, -99.0600",OK
39.1413,-84.5061,Cincinnati,UNITED STATES,1840003814,"39.1413, -84.5061",OK
-5.1331,119.4136,Makassar,INDONESIA,1360051337,"-5.1331, 119.4136",OK
55.0077,-1.6578,Newcastle,UNITED KINGDOM,1826292220,"55.0077, -1.6578",OK
-6.394,106.8225,Depok,INDONESIA,1360962899,"-6.3940, 106.8225",OK
24.965,121.2168,Zhongli,TAIWAN,1158025380,"24.9650, 121.2168",OK
39.1239,-94.5541,Kansas City,UNITED STATES,1840008535,"39.1239, -94.5541",OK
40.7834,-73.9662,Manhattan,UNITED STATES,1840034000,"40.7834, -73.9662",OK
14.65,120.9667,Caloocan City,PHILIPPINES,1608897690,"14.6500, 120.9667",OK
55.0333,82.9167,Novosibirsk,RUSSIA,1643399240,"55.0333, 82.9167",OK
39.7771,-86.1458,Indianapolis,UNITED STATES,1840030084,"39.7771, -86.1458",OK
19.0333,-98.1833,Puebla,MEXICO,1484416394,"19.0333, -98.1833",OK
9.9197,78.1194,Madurai,INDIA,1356257289,"9.9197, 78.1194",OK
-8.0539,-34.8808,Recife,BRAZIL,1076137337,"-8.0539, -34.8808",OK
39.9862,-82.985,Columbus,UNITED STATES,1840003760,"39.9862, -82.9850",OK
34.6913,135.183,Kobe,JAPAN,1392978082,"34.6913, 135.1830",OK
35.208,-80.8304,Charlotte,UNITED STATES,1840014557,"35.2080, -80.8304",OK
-1.4558,-48.5039,Belem,BRAZIL,1076646823,"-1.4558, -48.5039",OK
-30.0328,-51.23,Porto Alegre,BRAZIL,1076658221,"-30.0328, -51.2300",OK
48.1372,11.5755,Munich,GERMANY,1276692352,"48.1372, 11.5755",OK
-36.85,174.7833,Auckland,NEW ZEALAND,1554435911,"-36.8500, 174.7833",OK
56.8356,60.6128,Yekaterinburg,RUSSIA,1643582706,"56.8356, 60.6128",OK
-2.9833,104.7644,Palembang,INDONESIA,1360902897,"-2.9833, 104.7644",OK
21.1167,-101.6833,Leon de los Aldama,MEXICO,1484811199,"21.1167, -101.6833",OK
50,36.2292,Kharkiv,UKRAINE,1804588111,"50.0000, 36.2292",OK
35.53,139.705,Kawanakajima,JAPAN,1392879600,"35.5300, 139.7050",OK
52.6736,-1.12,Birstall,UNITED KINGDOM,1826141026,"52.6736, -1.1200",OK
40.8501,-73.8662,Bronx,UNITED STATES,1840033999,"40.8501, -73.8662",OK
52.0767,4.2986,The Hague,NETHERLANDS,1528799905,"52.0767, 4.2986",OK
25.3575,55.3919,Sharjah,UNITED ARAB EMIRATES,1784152993,"25.3575, 55.3919",OK
47.9203,106.9172,Ulaanbaatar,MONGOLIA,1496024767,"47.9203, 106.9172",OK
-16.6806,-49.2564,Goiania,BRAZIL,1076034054,"-16.6806, -49.2564",OK
44.8167,20.4667,Belgrade,SERBIA,1688374696,"44.8167, 20.4667",OK
45.4669,9.19,Milan,ITALY,1380724377,"45.4669, 9.1900",OK
43.0642,-87.9673,Milwaukee,UNITED STATES,1840003046,"43.0642, -87.9673",OK
42.6979,23.3217,Sofia,BULGARIA,1100762037,"42.6979, 23.3217",OK
-34.9289,138.6011,Adelaide,AUSTRALIA,1036538171,"-34.9289, 138.6011",OK
41.2867,36.33,Samsun,TURKEY,1792169057,"41.2867, 36.3300",OK
22.8167,89.55,Khulna,BANGLADESH,1050667339,"22.8167, 89.5500",OK
-31.4167,-64.1833,Cordoba,ARGENTINA,1032803249,"-31.4167, -64.1833",OK
-23.4667,-46.5333,Guarulhos,BRAZIL,1076730420,"-23.4667, -46.5333",OK
31.7386,-106.487,Juarez,MEXICO,1484840083,"31.7386, -106.4870",OK
-34.8667,-56.1667,Montevideo,URUGUAY,1858107000,"-34.8667, -56.1667",OK
34.4,132.45,Hiroshima,JAPAN,1392373695,"34.4000, 132.4500",OK
10.9639,-74.7964,Barranquilla,COLOMBIA,1170179113,"10.9639, -74.7964",OK
56.3269,44.0075,Nizhniy Novgorod,RUSSIA,1643012126,"56.3269, 44.0075",OK
55.7908,49.1144,Kazan,RUSSIA,1643101260,"55.7908, 49.1144",OK
51.05,-114.0667,Calgary,CANADA,1124690423,"51.0500, -114.0667",OK
10.0333,105.7833,Can Tho,VIETNAM,1704783472,"10.0333, 105.7833",OK
9.0556,7.4914,Abuja,NIGERIA,1566342270,"9.0556, 7.4914",OK
-4.05,39.6667,Mombasa,KENYA,1404512373,"-4.0500, 39.6667",OK
41.823,-71.4187,Providence,UNITED STATES,1840003289,"41.8230, -71.4187",OK
-32.9575,-60.6394,Rosario,ARGENTINA,1032770677,"-32.9575, -60.6394",OK
6.3176,5.6145,Benin City,NIGERIA,1566080151,"6.3176, 5.6145",OK
14.75,-17.4,Pikine,SENEGAL,1686165071,"14.7500, -17.4000",OK
53.3497,-6.2603,Dublin,IRELAND,1372595407,"53.3497, -6.2603",OK
30.3322,-81.6749,Jacksonville,UNITED STATES,1840015031,"30.3322, -81.6749",OK
34.0911,74.8061,Srinagar,INDIA,1356442950,"34.0911, 74.8061",OK
54.9667,73.3833,Omsk,RUSSIA,1643360863,"54.9667, 73.3833",OK
-5.4294,105.2625,Bandar Lampung,INDONESIA,1360243491,"-5.4294, 105.2625",OK
53.1833,50.1167,Samara,RUSSIA,1643205757,"53.1833, 50.1167",OK
-22.9009,-47.0573,Campinas,BRAZIL,1076145766,"-22.9009, -47.0573",OK
14.7319,-17.4572,Dakar,SENEGAL,1686604760,"14.7319, -17.4572",OK
20.7167,-103.4,Zapopan,MEXICO,1484198680,"20.7167, -103.4000",OK
19.45,-70.7,Santiago,DOMINICAN REPUBLIC,1214985348,"19.4500, -70.7000",OK
-12.0611,-77.1333,Callao,PERU,1604422141,"-12.0611, -77.1333",OK
19.41,-99.03,Ciudad Nezahualcoyotl,MEXICO,1484016661,"19.4100, -99.0300",OK
47.2333,39.7167,Rostov,RUSSIA,1643013518,"47.2333, 39.7167",OK
19.4,-98.9889,Nezahualcoyotl,MEXICO,1484074285,"19.4000, -98.9889",OK
54.7333,55.9667,Ufa,RUSSIA,1643722928,"54.7333, 55.9667",OK
37.39,-5.99,Sevilla,SPAIN,1724991838,"37.3900, -5.9900",OK
32.6633,-115.4678,Mexicali,MEXICO,1484788702,"32.6633, -115.4678",OK
10.9277,106.8681,Bien Hoa,VIETNAM,1704863046,"10.9277, 106.8681",OK
40.7777,-111.9306,Salt Lake City,UNITED STATES,1840021383,"40.7777, -111.9306",OK
50.9422,6.9578,Cologne,GERMANY,1276015998,"50.9422, 6.9578",OK
56.0167,92.8667,Krasnoyarsk,RUSSIA,1643544975,"56.0167, 92.8667",OK
-22.8269,-43.0539,Sao Goncalo,BRAZIL,1076485783,"-22.8269, -43.0539",OK
36.1715,-86.7843,Nashville,UNITED STATES,1840036155,"36.1715, -86.7843",OK
23.3556,85.3347,Ranchi,INDIA,1356110588,"23.3556, 85.3347",OK
-26.6736,27.9319,Vereeniging,SOUTH AFRICA,1710271883,"-26.6736, 27.9319",OK
-2.53,-44.3028,Sao Luis,BRAZIL,1076819308,"-2.5300, -44.3028",OK
35.1046,-89.9773,Memphis,UNITED STATES,1840015457,"35.1046, -89.9773",OK
53.5344,-113.4903,Edmonton,CANADA,1124290735,"53.5344, -113.4903",OK
36.8008,10.18,Tunis,TUNISIA,1788742103,"36.8008, 10.1800",OK
38.2683,140.8694,Sendai,JAPAN,1392457903,"38.2683, 140.8694",OK
51.6717,39.2106,Voronezh,RUSSIA,1643811064,"51.6717, 39.2106",OK
58.0139,56.2489,Perm,RUSSIA,1643294442,"58.0139, 56.2489",OK
-6.6,106.8,Bogor,INDONESIA,1360771925,"-6.6000, 106.8000",OK
10.4236,-75.5253,Cartagena,COLOMBIA,1170886102,"10.4236, -75.5253",OK
-9.6658,-35.735,Maceio,BRAZIL,1076440479,"-9.6658, -35.7350",OK
1.0678,104.0167,Patam,INDONESIA,1360893799,"1.0678, 104.0167",OK
40.9833,27.5167,Tekirdag,TURKEY,1792519395,"40.9833, 27.5167",OK
46.4775,30.7326,Odesa,UKRAINE,1804178102,"46.4775, 30.7326",OK
10.8199,106.7909,Thu Duc,VIETNAM,1704361621,"10.8199, 106.7909",OK
48.7086,44.5147,Volgograd,RUSSIA,1643577201,"48.7086, 44.5147",OK
43.7034,7.2663,Nice,FRANCE,1250774553,"43.7034, 7.2663",OK
-16.3988,-71.5369,Arequipa,PERU,1604723954,"-16.3988, -71.5369",OK
48.45,34.9833,Dnipro,UKRAINE,1804152933,"48.4500, 34.9833",OK
59.3294,18.0686,Stockholm,SWEDEN,1752425602,"59.3294, 18.0686",OK
45.4247,-75.695,Ottawa,CANADA,1124399363,"45.4247, -75.6950",OK
31.7833,35.2167,Jerusalem,ISRAEL,1376261644,"31.7833, 35.2167",OK
52.3667,4.8833,Amsterdam,NETHERLANDS,1528355309,"52.3667, 4.8833",OK
45.8,15.95,Zagreb,CROATIA,1191233290,"45.8000, 15.9500",OK
-25.7464,28.1881,Pretoria,SOUTH AFRICA,1710176249,"-25.7464, 28.1881",OK
49.8844,-97.1464,Winnipeg,CANADA,1124224963,"49.8844, -97.1464",OK
46.8139,-71.2081,Quebec City,CANADA,1124823933,"46.8139, -71.2081",OK
59.9111,10.7528,Oslo,NORWAY,1578324706,"59.9111, 10.7528",OK
37.9842,23.7281,Athens,GREECE,1300715560,"37.9842, 23.7281",OK
60.1756,24.9342,Helsinki,FINLAND,1246177997,"60.1756, 24.9342",OK
56.9475,24.1069,Riga,LATVIA,1428586192,"56.9475, 24.1069",OK
55.6761,12.5689,Copenhagen,DENMARK,1208763942,"55.6761, 12.5689",OK
54.6833,25.2833,Vilnius,LITHUANIA,1440887149,"54.6833, 25.2833",OK
38.7452,-9.1604,Lisbon,PORTUGAL,1620619017,"38.7452, -9.1604",OK
59.4372,24.745,Tallinn,ESTONIA,1233260021,"59.4372, 24.7450",OK
-33.925,18.425,Cape Town,SOUTH AFRICA,1710680650,"-33.9250, 18.4250",OK
48.1447,17.1128,Bratislava,SLOVAKIA,1703195001,"48.1447, 17.1128",OK
41.33,19.82,Tirana,ALBANIA,1008162156,"41.3300, 19.8200",OK
-35.2931,149.1269,Canberra,AUSTRALIA,1036142029,"-35.2931, 149.1269",OK
-41.2889,174.7772,Wellington,NEW ZEALAND,1554772152,"-41.2889, 174.7772",OK
33.8869,35.5131,Beirut,LEBANON,1422847713,"33.8869, 35.5131",OK
44.6475,-63.5906,Halifax,CANADA,1124130981,"44.6475, -63.5906",OK
48.4283,-123.3647,Victoria,CANADA,1124147219,"48.4283, -123.3647",OK
-29.31,27.48,Maseru,LESOTHO,1426977668,"-29.3100, 27.4800",OK
-19.0431,-65.2592,Sucre,BOLIVIA,1068823873,"-19.0431, -65.2592",OK
9.9333,-84.0833,San Jose,COSTA RICA,1188749877,"9.9333, -84.0833",OK
46.05,14.5167,Ljubljana,SLOVENIA,1705917455,"46.0500, 14.5167",OK
42.4397,19.2661,Podgorica,MONTENEGRO,1499454516,"42.4397, 19.2661",OK
12.108,-68.935,Willemstad,CURAÃ‡AO,1531000000,"12.1080, -68.9350",OK
46.948,7.4474,Bern,SWITZERLAND,1756374318,"46.9480, 7.4474",OK
64.1475,-21.935,Reykjavik,ICELAND,1352327190,"64.1475, -21.9350",OK
49.6106,6.1328,Luxembourg,LUXEMBOURG,1442262731,"49.6106, 6.1328",OK
27.4833,89.6333,Thimphu,BHUTAN,1064010361,"27.4833, 89.6333",OK
32.2942,-64.7839,Hamilton,BERMUDA,1060000000,"32.2942, -64.7839",OK
54.15,-4.4819,Douglas,ISLE OF MAN,1833688345,"54.1500, -4.4819",OK
47.1415,9.5215,Vaduz,LIECHTENSTEIN,1438317747,"47.1415, 9.5215",OK
64.175,-51.7333,Nuuk,GREENLAND,1304028354,"64.1750, -51.7333",OK
62,-6.7833,Torshavn,FAROE ISLANDS,1234904517,"62.0000, -6.7833",OK
-14.274,-170.7046,Pago Pago,AMERICAN SAMOA,1016976740,"-14.2740, -170.7046",OK
35.8978,14.5125,Valletta,MALTA,1470574399,"35.8978, 14.5125",OK
43.932,12.4484,San Marino,SAN MARINO,1674741947,"43.9320, 12.4484",OK
46.7811,-56.1764,Saint-Pierre,SAINT PIERRE AND MIQUELON,1666340272,"46.7811, -56.1764",OK
78.2167,15.6333,Longyearbyen,SVALBARD,1930654114,"78.2167, 15.6333",OK
4.5781,-74.2144,Soacha,COLOMBIA,1170512000,"4.5781, -74.2144",OK
33.8704,130.82,Kitaku,JAPAN,1392129541,"33.8704, 130.8200",OK
55.8609,-4.2514,Glasgow,UNITED KINGDOM,1826836462,"55.8609, -4.2514",OK
35.6,140.1,Chiba,JAPAN,1392107144,"35.6000, 140.1000",OK
40.8333,14.25,Naples,ITALY,1380646673,"40.8333, 14.2500",OK
35.4676,-97.5136,Oklahoma City,UNITED STATES,1840020428,"35.4676, -97.5136",OK
43.6045,1.444,Toulouse,FRANCE,1250258110,"43.6045, 1.4440",OK
36.7194,-4.42,Malaga,SPAIN,1724397372,"36.7194, -4.4200",OK
37.7731,29.0878,Denizli,TURKEY,1792161179,"37.7731, 29.0878",OK
21.876,-102.296,Aguascalientes,MEXICO,1484666646,"21.8760, -102.2960",OK
48.0089,37.8042,Donetsk,UKRAINE,1804963805,"48.0089, 37.8042",OK
-8.1119,-79.0289,Trujillo,PERU,1604613706,"-8.1119, -79.0289",OK
41.1918,-73.1953,Bridgeport,UNITED STATES,1840004836,"41.1918, -73.1953",OK
51.2206,4.4003,Antwerp,BELGIUM,1056168623,"51.2206, 4.4003",OK
-0.9556,100.3606,Padang,INDONESIA,1360900986,"-0.9556, 100.3606",OK
42.9016,-78.8487,Buffalo,UNITED STATES,1840000386,"42.9016, -78.8487",OK
32.7811,-97.3473,Fort Worth,UNITED STATES,1840020696,"32.7811, -97.3473",OK
-20.4686,-54.6222,Campo Grande,BRAZIL,1076660445,"-20.4686, -54.6222",OK
41.7661,-72.6834,Hartford,UNITED STATES,1840004773,"41.7661, -72.6834",OK
20.97,-89.62,Merida,MEXICO,1484396779,"20.9700, -89.6200",OK
-36.82,-73.0445,Concepcion,CHILE,1152838958,"-36.8200, -73.0445",OK
45.0333,38.9833,Krasnodar,RUSSIA,1643438227,"45.0333, 38.9833",OK
-5.795,-35.2089,Natal,BRAZIL,1076697777,"-5.7950, -35.2089",OK
28.6353,-106.0889,Chihuahua,MEXICO,1484335603,"28.6353, -106.0889",OK
45.0667,7.7,Turin,ITALY,1380244627,"45.0667, 7.7000",OK
43.2964,5.37,Marseille,FRANCE,1250774071,"43.2964, 5.3700",OK
39.7767,30.5206,Eskisehir,TURKEY,1792933981,"39.7767, 30.5206",OK
-5.0949,-42.8042,Teresina,BRAZIL,1076727667,"-5.0949, -42.8042",OK
4.6,101.07,Ipoh,MALAYSIA,1458423505,"4.6000, 101.0700",OK
53.4,-2.9833,Liverpool,UNITED KINGDOM,1826558678,"53.4000, -2.9833",OK
6.9167,122.0833,Zamboanga City,PHILIPPINES,1608189351,"6.9167, 122.0833",OK
50.9,-1.4,Southampton,UNITED KINGDOM,1826602892,"50.9000, -1.4000",OK
0.5333,101.45,Pekanbaru,INDONESIA,1360422679,"0.5333, 101.4500",OK
50.8058,-1.0872,Portsmouth,UNITED KINGDOM,1826964096,"50.8058, -1.0872",OK
41.2627,-96.0522,Omaha,UNITED STATES,1840009315,"41.2627, -96.0522",OK
51.5333,46,Saratov,RUSSIA,1643556540,"51.5333, 46.0000",OK
-23.6939,-46.565,Sao Bernardo do Campo,BRAZIL,1076793227,"-23.6939, -46.5650",OK
-22.74,-43.47,Iguacu,BRAZIL,1076339714,"-22.7400, -43.4700",OK
-8.6667,115.2167,Denpasar,INDONESIA,1360848527,"-8.6667, 115.2167",OK
19.4753,-99.2378,Naucalpan de Juarez,MEXICO,1484850125,"19.4753, -99.2378",OK
5.3942,100.3664,Butterworth,MALAYSIA,1458469233,"5.3942, 100.3664",OK
22.1511,-100.9761,San Luis Potosi,MEXICO,1484583620,"22.1511, -100.9761",OK
-7.12,-34.88,Joao Pessoa,BRAZIL,1076922014,"-7.1200, -34.8800",OK
19.2925,-99.6569,Toluca,MEXICO,1484124846,"19.2925, -99.6569",OK
21.3294,-157.846,Honolulu,UNITED STATES,1840013305,"21.3294, -157.8460",OK
20.5875,-100.3928,Queretaro,MEXICO,1484604775,"20.5875, -100.3928",OK
29.0989,-110.9542,Hermosillo,MEXICO,1484015319,"29.0989, -110.9542",OK
14.5167,121.05,Taguig City,PHILIPPINES,1608766695,"14.5167, 121.0500",OK
25.4333,-101,Saltillo,MEXICO,1484107245,"25.4333, -101.0000",OK
41.005,39.7225,Trabzon,TURKEY,1792019202,"41.0050, 39.7225",OK
39.47,-0.3764,Valencia,SPAIN,1724981666,"39.4700, -0.3764",OK
26.2273,-98.2471,McAllen,UNITED STATES,1840021024,"26.2273, -98.2471",OK
-19.1583,-45.4522,Abaete,BRAZIL,1076413528,"-19.1583, -45.4522",OK
2.8883,-75.4339,Palermo,COLOMBIA,1170614290,"2.8883, -75.4339",OK
1.4556,103.7611,Johor Bahru,MALAYSIA,1458747615,"1.4556, 103.7611",OK
14.575,121.0833,Pasig City,PHILIPPINES,1608278212,"14.5750, 121.0833",OK
34.7167,137.7333,Hamamatsu,JAPAN,1392174500,"34.7167, 137.7333",OK
24.8069,-107.3939,Culiacan,MEXICO,1484516810,"24.8069, -107.3939",OK
14.5842,121.1763,Antipolo,PHILIPPINES,1608824345,"14.5842, 121.1763",OK
52.95,-1.15,Nottingham,UNITED KINGDOM,1826122597,"52.9500, -1.1500",OK
50.0614,19.9372,Krakow,POLAND,1616172264,"50.0614, 19.9372",OK
39.9097,41.2756,Erzurum,TURKEY,1792511957,"39.9097, 41.2756",OK
40.6629,-73.6089,Hempstead,UNITED STATES,1840005293,"40.6629, -73.6089",OK
35.1053,-106.6464,Albuquerque,UNITED STATES,1840019176,"35.1053, -106.6464",OK
19.5367,-99.1947,Tlalnepantla,MEXICO,1484861603,"19.5367, -99.1947",OK
50.1136,8.6797,Frankfurt,GERMANY,1276054552,"50.1136, 8.6797",OK
-0.5022,117.1536,Samarinda,INDONESIA,1360684979,"-0.5022, 117.1536",OK
24.0667,120.5333,Changhua,TAIWAN,1158439005,"24.0667, 120.5333",OK
-29.5833,30.4167,Pietermaritzburg,SOUTH AFRICA,1710690280,"-29.5833, 30.4167",OK
7.9075,-72.5047,Cucuta,COLOMBIA,1170743755,"7.9075, -72.5047",OK
57.15,65.5333,Tyumen,RUSSIA,1643040435,"57.1500, 65.5333",OK
21.1606,-86.8475,Cancun,MEXICO,1484010310,"21.1606, -86.8475",OK
47.8378,35.1383,Zaporizhzhia,UKRAINE,1804644752,"47.8378, 35.1383",OK
20.4736,-103.4431,Tlajomulco de Zuniga,MEXICO,1484017493,"20.4736, -103.4431",OK
32.8031,130.7078,Kumamoto,JAPAN,1392106283,"32.8031, 130.7078",OK
48.1147,-1.6794,Rennes,FRANCE,1250363682,"48.1147, -1.6794",OK
-45.8667,-67.5,Comodoro Rivadavia,ARGENTINA,1032042035,"-45.8667, -67.5000",OK
51.45,-2.5833,Bristol,UNITED KINGDOM,1826921049,"51.4500, -2.5833",OK
49.8419,24.0315,Lviv,UKRAINE,1804939658,"49.8419, 24.0315",OK
26.0922,-98.2778,Reynosa,MEXICO,1484737671,"26.0922, -98.2778",OK
35.5667,139.3667,Sagamihara,JAPAN,1392967248,"35.5667, 139.3667",OK
27.3386,-82.5431,Sarasota,UNITED STATES,1840015988,"27.3386, -82.5431",OK
43.6,-79.65,Mississauga,CANADA,1124112672,"43.6000, -79.6500",OK
34.65,133.9167,Okayama,JAPAN,1392954750,"34.6500, 133.9167",OK
6.4403,7.4942,Enugu,NIGERIA,1566212729,"6.4403, 7.4942",OK
5.4145,100.3292,George Town,MALAYSIA,1458236750,"5.4145, 100.3292",OK
-23.6572,-46.5333,Santo Andre,BRAZIL,1076625886,"-23.6572, -46.5333",OK
10.92,-74.77,Soledad,COLOMBIA,1170765625,"10.9200, -74.7700",OK
53.5167,49.4167,Tolyatti,RUSSIA,1643256295,"53.5167, 49.4167",OK
35.6924,139.8757,Edogawa,JAPAN,1392135698,"35.6924, 139.8757",OK
-23.5328,-46.7919,Osasco,BRAZIL,1076786452,"-23.5328, -46.7919",OK
43.168,-77.6162,Rochester,UNITED STATES,1840000373,"43.1680, -77.6162",OK
36.7831,-119.7941,Fresno,UNITED STATES,1840020319,"36.7831, -119.7941",OK
-3.3333,114.5833,Banjarmasin,INDONESIA,1360685223,"-3.3333, 114.5833",OK
-18.9189,-48.2769,Uberlandia,BRAZIL,1076495001,"-18.9189, -48.2769",OK
45.1715,5.7224,Grenoble,FRANCE,1250071647,"45.1715, 5.7224",OK
25.6775,-100.2597,Guadalupe,MEXICO,1484002410,"25.6775, -100.2597",OK
35.7833,139.8,Adachi,JAPAN,1392464568,"35.7833, 139.8000",OK
-10.9111,-37.0717,Aracaju,BRAZIL,1076527830,"-10.9111, -37.0717",OK
43.2567,-79.8692,Hamilton,CANADA,1124567288,"43.2567, -79.8692",OK
51.7769,19.4547,Lodz,POLAND,1616832750,"51.7769, 19.4547",OK
-23.1789,-45.8869,Sao Jose dos Campos,BRAZIL,1076783887,"-23.1789, -45.8869",OK
16.8636,-99.8825,Acapulco de Juarez,MEXICO,1484463183,"16.8636, -99.8825",OK
53.3833,-1.4667,Sheffield,UNITED KINGDOM,1826289852,"53.3833, -1.4667",OK
34.9756,138.3825,Shizuoka,JAPAN,1392235505,"34.9756, 138.3825",OK
14.4667,121.0167,City of Paranaque,PHILIPPINES,1608379532,"14.4667, 121.0167",OK
40.5961,-75.4756,Allentown,UNITED STATES,1840001044,"40.5961, -75.4756",OK
-7.3333,108.2,Tasikmalaya,INDONESIA,1360027771,"-7.3333, 108.2000",OK
22.203,113.545,Macau,MACAU,1446227359,"22.2030, 113.5450",OK
25.5394,-103.4486,Torreon,MEXICO,1484215762,"25.5394, -103.4486",OK
-28.0167,153.4,Gold Coast,AUSTRALIA,1036153217,"-28.0167, 153.4000",OK
8.4833,124.65,Cagayan de Oro,PHILIPPINES,1608831546,"8.4833, 124.6500",OK
38.1157,13.3613,Palermo,ITALY,1380428434,"38.1157, 13.3613",OK
36.1284,-95.9042,Tulsa,UNITED STATES,1840021672,"36.1284, -95.9042",OK
26.6446,-81.9956,Cape Coral,UNITED STATES,1840015130,"26.6446, -81.9956",OK
-21.1783,-47.8067,Ribeirao Preto,BRAZIL,1076524478,"-21.1783, -47.8067",OK
14.3294,120.9367,Dasmarinas,PHILIPPINES,1608418544,"14.3294, 120.9367",OK
37.9722,-122.0016,Concord,UNITED STATES,1840018905,"37.9722, -122.0016",OK
-19.9319,-44.0539,Contagem,BRAZIL,1076845191,"-19.9319, -44.0539",OK
41.6483,-0.883,Zaragoza,SPAIN,1724907391,"41.6483, -0.8830",OK
51.2311,6.7724,Dusseldorf,GERMANY,1276615258,"51.2311, 6.7724",OK
-23.5019,-47.4578,Sorocaba,BRAZIL,1076758708,"-23.5019, -47.4578",OK
17.9892,-92.9281,Villahermosa,MEXICO,1484460894,"17.9892, -92.9281",OK
3.1073,101.6067,Petaling Jaya,MALAYSIA,1458989343,"3.1073, 101.6067",OK
52.0908,5.1222,Utrecht,NETHERLANDS,1528871692,"52.0908, 5.1222",OK
38.8674,-104.7606,Colorado Springs,UNITED STATES,1840018825,"38.8674, -104.7606",OK
14.7,120.9833,Valenzuela,PHILIPPINES,1608492120,"14.7000, 120.9833",OK
51.11,17.0325,Wroclaw,POLAND,1616108520,"51.1100, 17.0325",OK
47.2181,-1.5528,Nantes,FRANCE,1250091495,"47.2181, -1.5528",OK
48.7761,9.1775,Stuttgart,GERMANY,1276171358,"48.7761, 9.1775",OK
-17.3935,-66.157,Cochabamba,BOLIVIA,1068793894,"-17.3935, -66.1570",OK
53.3567,83.7872,Barnaul,RUSSIA,1643318931,"53.3567, 83.7872",OK
34.4333,35.8333,Tripoli,LEBANON,1422886065,"34.4333, 35.8333",OK
51.9225,4.4792,Rotterdam,NETHERLANDS,1528892850,"51.9225, 4.4792",OK
47.9086,33.3433,Kryvyi Rih,UKRAINE,1804544901,"47.9086, 33.3433",OK
19.4167,-98.9,Chimalhuacan,MEXICO,1484504936,"19.4167, -98.9000",OK
54.3167,48.3667,Ulyanovsk,RUSSIA,1643668944,"54.3167, 48.3667",OK
14.4624,120.9645,Bacoor,PHILIPPINES,1608869358,"14.4624, 120.9645",OK
-15.5958,-56.0969,Cuiaba,BRAZIL,1076112309,"-15.5958, -56.0969",OK
-12.2669,-38.9669,Feira de Santana,BRAZIL,1076892244,"-12.2669, -38.9669",OK
48.4833,135.0667,Khabarovsk,RUSSIA,1643175363,"48.4833, 135.0667",OK
-6.12,106.1503,Serang,INDONESIA,1360329102,"-6.1200, 106.1503",OK
43.6119,3.8772,Montpellier,FRANCE,1250819356,"43.6119, 3.8772",OK
-26.8167,-65.2167,San Miguel de Tucuman,ARGENTINA,1032233996,"-26.8167, -65.2167",OK
43.1167,131.9,Vladivostok,RUSSIA,1643832017,"43.1167, 131.9000",OK
57.6717,11.981,Gothenburg,SWEDEN,1752059374,"57.6717, 11.9810",OK
-1.59,103.61,Jambi,INDONESIA,1360645580,"-1.5900, 103.6100",OK
14.45,120.9833,Las Pinas City,PHILIPPINES,1608544537,"14.4500, 120.9833",OK
-6.8833,107.5333,Cimahi,INDONESIA,1360181436,"-6.8833, 107.5333",OK
16.7528,-93.1167,Tuxtla,MEXICO,1484832519,"16.7528, -93.1167",OK
-26.3039,-48.8458,Joinvile,BRAZIL,1076050637,"-26.3039, -48.8458",OK
-29.8583,31.025,Durban,SOUTH AFRICA,1710149138,"-29.8583, 31.0250",OK
6.1167,125.1667,General Santos,PHILIPPINES,1608171585,"6.1167, 125.1667",OK
51.3333,12.3833,Leipzig,GERMANY,1276563678,"51.3333, 12.3833",OK
42.9833,47.4833,Makhachkala,RUSSIA,1643580480,"42.9833, 47.4833",OK
-38,-57.55,Mar del Plata,ARGENTINA,1032456103,"-38.0000, -57.5500",OK
43.6833,-79.7667,Brampton,CANADA,1124625989,"43.6833, -79.7667",OK
4.8143,-75.6946,Pereira,COLOMBIA,1170386718,"4.8143, -75.6946",OK
33.6095,-117.655,Mission Viejo,UNITED STATES,1840020580,"33.6095, -117.6550",OK
51.5139,7.4653,Dortmund,GERMANY,1276562886,"51.5139, 7.4653",OK
42.6664,-73.7987,Albany,UNITED STATES,1840000417,"42.6664, -73.7987",OK
35.9692,-83.9496,Knoxville,UNITED STATES,1840014486,"35.9692, -83.9496",OK
51.4508,7.0131,Essen,GERMANY,1276769247,"51.4508, 7.0131",OK
7.1186,-73.1161,Bucaramanga,COLOMBIA,1170940590,"7.1186, -73.1161",OK
44.4072,8.934,Genoa,ITALY,1380716540,"44.4072, 8.9340",OK
20.6167,-103.3167,Tlaquepaque,MEXICO,1484087945,"20.6167, -103.3167",OK
-33.6167,-70.5833,Puente Alto,CHILE,1152516346,"-33.6167, -70.5833",OK
30.318,78.029,Dehra Dun,INDIA,1356970407,"30.3180, 78.0290",OK
14.8139,121.0453,San Jose del Monte,PHILIPPINES,1608850554,"14.8139, 121.0453",OK
35.3529,-119.0359,Bakersfield,UNITED STATES,1840019148,"35.3529, -119.0359",OK
35.6667,139.3167,Hachioji,JAPAN,1392172935,"35.6667, 139.3167",OK
41.2278,-111.9682,Ogden,UNITED STATES,1840020135,"41.2278, -111.9682",OK
56.4886,84.9522,Tomsk,RUSSIA,1643258928,"56.4886, 84.9522",OK
53.7444,-0.3325,Kingston upon Hull,UNITED KINGDOM,1826028894,"53.7444, -0.3325",OK
30.4418,-91.131,Baton Rouge,UNITED STATES,1840013941,"30.4418, -91.1310",OK
51.7667,55.1,Orenburg,RUSSIA,1643685056,"51.7667, 55.1000",OK
10.6765,122.9509,Bacolod,PHILIPPINES,1608244137,"10.6765, 122.9509",OK
41.0798,-81.5219,Akron,UNITED STATES,1840000791,"41.0798, -81.5219",OK
41.3112,-72.9246,New Haven,UNITED STATES,1840004850,"41.3112, -72.9246",OK
-7.5667,110.8167,Surakarta,INDONESIA,1360853933,"-7.5667, 110.8167",OK
51.05,13.74,Dresden,GERMANY,1276561036,"51.0500, 13.7400",OK
19.1903,-96.1533,Veracruz,MEXICO,1484992153,"19.1903, -96.1533",OK
-6.763,-79.8366,Chiclayo,PERU,1604799615,"-6.7630, -79.8366",OK
39.5667,2.65,Palma,SPAIN,1724728111,"39.5667, 2.6500",OK
-23.31,-51.1628,Londrina,BRAZIL,1076723241,"-23.3100, -51.1628",OK
10.4603,-73.2597,Valledupar,COLOMBIA,1170481949,"10.4603, -73.2597",OK
4.4378,-75.2006,Ibague,COLOMBIA,1170245063,"4.4378, -75.2006",OK
52.3744,9.7386,Hannover,GERMANY,1276457707,"52.3744, 9.7386",OK
54.6167,39.7167,Ryazan,RUSSIA,1643205787,"54.6167, 39.7167",OK
-1.3658,-48.3719,Ananindeua,BRAZIL,1076025295,"-1.3658, -48.3719",OK
52.4,16.9167,Poznan,POLAND,1616725607,"52.4000, 16.9167",OK
-24.7883,-65.4106,Salta,ARGENTINA,1032926124,"-24.7883, -65.4106",OK
46.3333,48.0167,Astrakhan,RUSSIA,1643407929,"46.3333, 48.0167",OK
19.54,-96.9275,Xalapa,MEXICO,1484334948,"19.5400, -96.9275",OK
4.1425,-73.6294,Villavicencio,COLOMBIA,1170426927,"4.1425, -73.6294",OK
31.8578,-116.6058,Ensenada,MEXICO,1484714297,"31.8578, -116.6058",OK
45.76,4.84,Lyon,FRANCE,1250196189,"45.7600, 4.8400",OK
25.7833,-100.1833,Ciudad Apodaca,MEXICO,1484855080,"25.7833, -100.1833",OK
-33.5167,-70.7667,Maipu,CHILE,1152583016,"-33.5167, -70.7667",OK
25.8797,-97.5042,Heroica Matamoros,MEXICO,1484614906,"25.8797, -97.5042",OK
49.4539,11.0775,Nuremberg,GERMANY,1276166609,"49.4539, 11.0775",OK
36.55,139.8833,Utsunomiya,JAPAN,1392506125,"36.5500, 139.8833",OK
33.4017,-111.718,Mesa,UNITED STATES,1840020566,"33.4017, -111.7180",OK
49.19,-122.8489,Surrey,CANADA,1124001454,"49.1900, -122.8489",OK
-29.1678,-51.1789,Caxias do Sul,BRAZIL,1076809957,"-29.1678, -51.1789",OK
19.65,-99.25,Cuautitlan Izcalli,MEXICO,1484282338,"19.6500, -99.2500",OK
52.6333,-1.1333,Leicester,UNITED KINGDOM,1826431946,"52.6333, -1.1333",OK
52.6167,39.6,Lipetsk,RUSSIA,1643772906,"52.6167, 39.6000",OK
33.8333,132.7667,Matsuyama,JAPAN,1392220893,"33.8333, 132.7667",OK
22.6761,120.4942,Pingtung,TAIWAN,1158209038,"22.6761, 120.4942",OK
8.76,-75.8856,Monteria,COLOMBIA,1170855299,"8.7600, -75.8856",OK
23.22,-106.42,Mazatlan,MEXICO,1484841466,"23.2200, -106.4200",OK
37.9861,-1.1303,Murcia,SPAIN,1724107739,"37.9861, -1.1303",OK
58.6,49.65,Kirov,RUSSIA,1643106064,"58.6000, 49.6500",OK
51.4322,6.7611,Duisburg,GERMANY,1276977172,"51.4322, 6.7611",OK
46.9667,32,Mykolaiv,UKRAINE,1804398395,"46.9667, 32.0000",OK
40.2457,-111.6457,Provo,UNITED STATES,1840020174,"40.2457, -111.6457",OK
-22.8833,-43.1036,Niteroi,BRAZIL,1076501425,"-22.8833, -43.1036",OK
35.7878,139.9031,Matsudo,JAPAN,1392642525,"35.7878, 139.9031",OK
49.4428,1.0886,Rouen,FRANCE,1250372069,"49.4428, 1.0886",OK
34.6794,135.6008,Higashi-osaka,JAPAN,1392117396,"34.6794, 135.6008",OK
42.2705,-71.8079,Worcester,UNITED STATES,1840000434,"42.2705, -71.8079",OK
-9.0745,-78.5936,Chimbote,PERU,1604199858,"-9.0745, -78.5936",OK
19.3186,-98.8822,Ixtapaluca,MEXICO,1484452937,"19.3186, -98.8822",OK
33.572,-117.1909,Murrieta,UNITED STATES,1840020553,"33.5720, -117.1909",OK
6.1333,102.25,Kota Bharu,MALAYSIA,1458150101,"6.1333, 102.2500",OK
19.645,-99.1694,Tultitlan de Mariano Escobedo,MEXICO,1484562374,"19.6450, -99.1694",OK
34.7333,135.3333,Nishinomiya-hama,JAPAN,1392114116,"34.7333, 135.3333",OK
56.1333,47.25,Cheboksary,RUSSIA,1643163382,"56.1333, 47.2500",OK
55.953,-3.189,Edinburgh,UNITED KINGDOM,1826492520,"55.9530, -3.1890",OK
54.2,37.6167,Tula,RUSSIA,1643255206,"54.2000, 37.6167",OK
-20.1289,-40.3078,Serra,BRAZIL,1076191325,"-20.1289, -40.3078",OK
25.75,-100.2833,San Nicolas de los Garza,MEXICO,1484264138,"25.7500, -100.2833",OK
-21.7642,-43.3503,Juiz de Fora,BRAZIL,1076006144,"-21.7642, -43.3503",OK
-22.7392,-47.3314,Americana,BRAZIL,1076922153,"-22.7392, -47.3314",OK
24.9,91.8667,Sylhet,BANGLADESH,1050646703,"24.9000, 91.8667",OK
37.6896,-97.3442,Wichita,UNITED STATES,1840001686,"37.6896, -97.3442",OK
41.6639,-83.5822,Toledo,UNITED STATES,1840000572,"41.6639, -83.5822",OK
51.4833,-3.1833,Caerdydd,UNITED KINGDOM,1826362422,"51.4833, -3.1833",OK
-27.5933,-48.553,Florianopolis,BRAZIL,1076190259,"-27.5933, -48.5530",OK
33.2333,131.6067,Oita,JAPAN,1392081193,"33.2333, 131.6067",OK
54.7167,20.5,Kaliningrad,RUSSIA,1643178106,"54.7167, 20.5000",OK
40.5834,-74.1496,Staten Island,UNITED STATES,1840034032,"40.5834, -74.1496",OK
-31.5375,-68.5364,San Juan,ARGENTINA,1032869625,"-31.5375, -68.5364",OK
-20.3364,-40.2936,Vila Velha,BRAZIL,1076404077,"-20.3364, -40.2936",OK
0.033,-51.0653,Macapa,BRAZIL,1076189884,"0.0330, -51.0653",OK
41.5725,-93.6105,Des Moines,UNITED STATES,1840007069,"41.5725, -93.6105",OK
-5.2008,-80.6253,Piura,PERU,1604331641,"-5.2008, -80.6253",OK
20.5222,-100.8122,Celaya,MEXICO,1484979555,"20.5222, -100.8122",OK
48.5833,7.7458,Strasbourg,FRANCE,1250789140,"48.5833, 7.7458",OK
-34.7,-58.4,Lanus,ARGENTINA,1032009573,"-34.7000, -58.4000",OK
54.3667,18.6333,Gdansk,POLAND,1616406372,"54.3667, 18.6333",OK
1.4931,124.8413,Manado,INDONESIA,1360771278,"1.4931, 124.8413",OK
36.6,136.6167,Kanazawa,JAPAN,1392684679,"36.6000, 136.6167",OK
33.7981,-118.1675,Long Beach,UNITED STATES,1840020490,"33.7981, -118.1675",OK
38.3554,38.3337,Malatya,TURKEY,1792485155,"38.3554, 38.3337",OK
16.4637,107.5908,Hue,VIETNAM,1704016023,"16.4637, 107.5908",OK
-38.0996,145.2834,Cranbourne,AUSTRALIA,1036685862,"-38.0996, 145.2834",OK
27.2796,-80.3883,Port St. Lucie,UNITED STATES,1840015119,"27.2796, -80.3883",OK
-23.6678,-46.4608,Maua,BRAZIL,1076477498,"-23.6678, -46.4608",OK
34.4858,133.3625,Fukuyama,JAPAN,1392551602,"34.4858, 133.3625",OK
32.08,34.78,Tel Aviv-Yafo,ISRAEL,1376401542,"32.0800, 34.7800",OK
14.65,121.1,Marikina City,PHILIPPINES,1608000077,"14.6500, 121.1000",OK
14.2167,121.1667,City of Calamba,PHILIPPINES,1608985581,"14.2167, 121.1667",OK
33.2176,-97.1419,Denton,UNITED STATES,1840019390,"33.2176, -97.1419",OK
2.1889,102.2511,Melaka,MALAYSIA,1458467506,"2.1889, 102.2511",OK
24.9889,121.3111,Taoyuan District,TAIWAN,1158127875,"24.9889, 121.3111",OK
10.7167,122.5667,Iloilo,PHILIPPINES,1608875987,"10.7167, 122.5667",OK
5.975,116.0725,Kota Kinabalu,MALAYSIA,1458441859,"5.9750, 116.0725",OK
24.3667,88.6,Rajshahi,BANGLADESH,1050547831,"24.3667, 88.6000",OK
55.8,37.95,Balashikha,RUSSIA,1643989845,"55.8000, 37.9500",OK
51.7372,36.1872,Kursk,RUSSIA,1643011077,"51.7372, 36.1872",OK
24.8047,120.9714,Hsinchu,TAIWAN,1158276420,"24.8047, 120.9714",OK
37.8833,41.1333,Batman,TURKEY,1792630786,"37.8833, 41.1333",OK
14.55,121,Pasay City,PHILIPPINES,1608448280,"14.5500, 121.0000",OK
-19.9678,-44.1978,Betim,BRAZIL,1076953384,"-19.9678, -44.1978",OK
39.5497,-119.8483,Reno,UNITED STATES,1840020121,"39.5497, -119.8483",OK
37.5875,36.9453,Kahramanmaras,TURKEY,1792726797,"37.5875, 36.9453",OK
-20.82,-49.3789,Sao Jose do Rio Preto,BRAZIL,1076760827,"-20.8200, -49.3789",OK
48.6936,6.1846,Nancy,FRANCE,1250925250,"48.6936, 6.1846",OK
35.5486,139.4467,Machida,JAPAN,1392788615,"35.5486, 139.4467",OK
34.7256,-92.3576,Little Rock,UNITED STATES,1840015509,"34.7256, -92.3576",OK
47.3786,8.54,Zurich,SWITZERLAND,1756539143,"47.3786, 8.5400",OK
-23.6858,-46.6228,Diadema,BRAZIL,1076867279,"-23.6858, -46.6228",OK
-10.1633,123.5778,Kupang,INDONESIA,1360696757,"-10.1633, 123.5778",OK
5.0661,-75.4847,Manizales,COLOMBIA,1170930654,"5.0661, -75.4847",OK
45.05,41.9833,Stavropol,RUSSIA,1643947228,"45.0500, 41.9833",OK
-7.8014,110.3644,Yogyakarta,INDONESIA,1360384833,"-7.8014, 110.3644",OK
-27.9831,26.7208,Welkom,SOUTH AFRICA,1710480365,"-27.9831, 26.7208",OK
37.7903,-122.2165,Oakland,UNITED STATES,1840020296,"37.7903, -122.2165",OK
-23.425,-51.9389,Maringa,BRAZIL,1076013378,"-23.4250, -51.9389",OK
-13.5183,-71.9781,Cusco,PERU,1604162901,"-13.5183, -71.9781",OK
14.5833,121.0333,Mandaluyong City,PHILIPPINES,1608166320,"14.5833, 121.0333",OK
-8.7619,-63.9039,Porto Velho,BRAZIL,1076045591,"-8.7619, -63.9039",OK
-34.8167,-58.2833,Florencio Varela,ARGENTINA,1032730758,"-34.8167, -58.2833",OK
-23.5228,-46.1931,Mogi das Cruzes,BRAZIL,1076857883,"-23.5228, -46.1931",OK
35.9794,-78.9031,Durham,UNITED STATES,1840013364,"35.9794, -78.9031",OK
3.8772,-77.0267,Buenaventura,COLOMBIA,1170287988,"3.8772, -77.0267",OK
45.5833,-73.75,Laval,CANADA,1124922301,"45.5833, -73.7500",OK
35.0833,137.1567,Toyota,JAPAN,1392498272,"35.0833, 137.1567",OK
36.1029,-80.2611,Winston-Salem,UNITED STATES,1840015324,"36.1029, -80.2611",OK
56.8578,35.9219,Tver,RUSSIA,1643456559,"56.8578, 35.9219",OK
7.25,5.195,Akure,NIGERIA,1566568277,"7.2500, 5.1950",OK
2.7297,101.9381,Seremban,MALAYSIA,1458051507,"2.7297, 101.9381",OK
34.35,134.05,Takamatsu,JAPAN,1392427161,"34.3500, 134.0500",OK
33.7346,-116.2346,Indio,UNITED STATES,1840019304,"33.7346, -116.2346",OK
-8.5833,116.1167,Mataram,INDONESIA,1360021952,"-8.5833, 116.1167",OK
35.0657,-85.2488,Chattanooga,UNITED STATES,1840014569,"35.0657, -85.2488",OK
10.3127,123.9488,Lapu-Lapu City,PHILIPPINES,1608430676,"10.3127, 123.9488",OK
-0.1,34.75,Kisumu,KENYA,1404511920,"-0.1000, 34.7500",OK
-16.7322,-43.8636,Montes Claros,BRAZIL,1076113275,"-16.7322, -43.8636",OK
-9.9781,-67.8117,Rio Branco,BRAZIL,1076391263,"-9.9781, -67.8117",OK
36.7,137.22,Toyama,JAPAN,1392000560,"36.7000, 137.2200",OK
47.6671,-117.433,Spokane,UNITED STATES,1840021093,"47.6671, -117.4330",OK
43.5853,39.7203,Sochi,RUSSIA,1643009782,"43.5853, 39.7203",OK
14.4297,120.9367,Imus,PHILIPPINES,1608802508,"14.4297, 120.9367",OK
27.4939,-109.9389,Ciudad Obregon,MEXICO,1484887986,"27.4939, -109.9389",OK
-31.6333,-60.7,Santa Fe,ARGENTINA,1032817575,"-31.6333, -60.7000",OK
-7.2306,-35.8811,Campina Grande,BRAZIL,1076218697,"-7.2306, -35.8811",OK
32.7833,129.8667,Nagasaki,JAPAN,1392162566,"32.7833, 129.8667",OK
53.4247,14.5553,Szczecin,POLAND,1616256546,"53.4247, 14.5553",OK
43.0409,-76.1438,Syracuse,UNITED STATES,1840000378,"43.0409, -76.1438",OK
-23.5228,-46.8358,Carapicuiba,BRAZIL,1076874103,"-23.5228, -46.8358",OK
-23.1864,-46.8842,Jundiai,BRAZIL,1076998392,"-23.1864, -46.8842",OK
35.4167,136.7667,Gifu,JAPAN,1392097787,"35.4167, 136.7667",OK
40.0421,-76.3012,Lancaster,UNITED STATES,1840003718,"40.0421, -76.3012",OK
51.4408,5.4778,Eindhoven,NETHERLANDS,1528636212,"51.4408, 5.4778",OK
31.9167,131.4167,Miyazaki,JAPAN,1392216224,"31.9167, 131.4167",OK
5.8388,118.1173,Sandakan,MALAYSIA,1458405180,"5.8388, 118.1173",OK
19.8075,105.7764,Thanh Hoa,VIETNAM,1704016079,"19.8075, 105.7764",OK
41.6949,-73.921,Poughkeepsie,UNITED STATES,1840000500,"41.6949, -73.9210",OK
-21.7523,-41.3304,Campos,BRAZIL,1076606365,"-21.7523, -41.3304",OK
49.1203,6.1778,Metz,FRANCE,1250778717,"49.1203, 6.1778",OK
12.2495,109.1908,Nha Trang,VIETNAM,1704497901,"12.2495, 109.1908",OK
50.6,36.6,Belgorod,RUSSIA,1643407900,"50.6000, 36.6000",OK
-8.0089,-34.855,Olinda,BRAZIL,1076784718,"-8.0089, -34.8550",OK
44.4939,11.3428,Bologna,ITALY,1380202039,"44.4939, 11.3428",OK
33.3645,-82.0708,Augusta,UNITED STATES,1840029462,"33.3645, -82.0708",OK
-6.0027,106.0112,Cilegon,INDONESIA,1360643410,"-6.0027, 106.0112",OK
43.6007,-116.2312,Boise,UNITED STATES,1840027142,"43.6007, -116.2312",OK
20.6167,-103.2333,Tonala,MEXICO,1484750897,"20.6167, -103.2333",OK
34.1963,-119.1815,Oxnard,UNITED STATES,1840020474,"34.1963, -119.1815",OK
34.95,137.1667,Okazaki,JAPAN,1392862345,"34.9500, 137.1667",OK
-20.2639,-40.42,Cariacica,BRAZIL,1076479479,"-20.2639, -40.4200",OK
28.1272,-15.4314,Las Palmas,SPAIN,1724501748,"28.1272, -15.4314",OK
43.7714,11.2542,Florence,ITALY,1380726561,"43.7714, 11.2542",OK
42.9836,-81.2497,London,CANADA,1124469960,"42.9836, -81.2497",OK
37.6374,-121.0028,Modesto,UNITED STATES,1840020287,"37.6374, -121.0028",OK
28.3042,-81.4164,Kissimmee,UNITED STATES,1840015109,"28.3042, -81.4164",OK
1.2136,-77.2811,Pasto,COLOMBIA,1170320545,"1.2136, -77.2811",OK
35.3039,136.8031,Ichinomiya,JAPAN,1392379530,"35.3039, 136.8031",OK
20.6667,-101.35,Irapuato,MEXICO,1484625454,"20.6667, -101.3500",OK
45.2644,19.8317,Novi Sad,SERBIA,1688169087,"45.2644, 19.8317",OK
-12.0667,-75.2167,Huancayo,PERU,1604249985,"-12.0667, -75.2167",OK
14.6625,120.9567,Malabon,PHILIPPINES,1608045841,"14.6625, 120.9567",OK
38.7974,-9.3904,Sintra,PORTUGAL,1620848791,"38.7974, -9.3904",OK
41.0993,-80.6463,Youngstown,UNITED STATES,1840003563,"41.0993, -80.6463",OK
-43.5309,172.6365,Christchurch,NEW ZEALAND,1554377228,"-43.5309, 172.6365",OK
36.2,36.15,Hatay,TURKEY,1792115763,"36.2000, 36.1500",OK
-3.7333,-73.25,Iquitos,PERU,1604493809,"-3.7333, -73.2500",OK
39.75,37.0167,Sivas,TURKEY,1792938326,"39.7500, 37.0167",OK
43.3713,-8.4188,A Coruna,SPAIN,1724417375,"43.3713, -8.4188",OK
-37,174.885,Manukau City,NEW ZEALAND,1554797148,"-37.0000, 174.8850",OK
53,-2.1833,Stoke-on-Trent,UNITED KINGDOM,1826799578,"53.0000, -2.1833",OK
49.2372,28.4672,Vinnytsia,UKRAINE,1804658571,"49.2372, 28.4672",OK
6.3319,-75.5581,Bello,COLOMBIA,1170423489,"6.3319, -75.5581",OK
27.4861,-99.5069,Nuevo Laredo,MEXICO,1484597234,"27.4861, -99.5069",OK
25.1283,121.7419,Keelung,TAIWAN,1158820647,"25.1283, 121.7419",OK
34.7667,137.3833,Toyohashi,JAPAN,1392482960,"34.7667, 137.3833",OK
-33.55,-70.5667,La Florida,CHILE,1152939649,"-33.5500, -70.5667",OK
43.2114,27.9111,Varna,BULGARIA,1100789115,"43.2114, 27.9111",OK
18.9186,-99.2342,Cuernavaca,MEXICO,1484926471,"18.9186, -99.2342",OK
36.6486,138.1928,Nagano,JAPAN,1392603439,"36.6486, 138.1928",OK
51.4833,7.2167,Bochum,GERMANY,1276227288,"51.4833, 7.2167",OK
-16.3269,-48.9528,Anapolis,BRAZIL,1076208869,"-16.3269, -48.9528",OK
52.4081,-1.5106,Coventry,UNITED KINGDOM,1826979198,"52.4081, -1.5106",OK
19.7131,-98.9683,Tecamac,MEXICO,1484363321,"19.7131, -98.9683",OK
40.7656,29.9406,Kocaeli,TURKEY,1792965114,"40.7656, 29.9406",OK
-3.7956,102.2592,Bengkulu,INDONESIA,1360191448,"-3.7956, 102.2592",OK
-0.895,119.8594,Palu,INDONESIA,1360518272,"-0.8950, 119.8594",OK
5.65,100.48,Sungai Petani,MALAYSIA,1458639918,"5.6500, 100.4800",OK
-20.3189,-40.3378,Vitoria,BRAZIL,1076376829,"-20.3189, -40.3378",OK
56.1286,40.4058,Vladimir,RUSSIA,1643712167,"56.1286, 40.4058",OK
43.2569,-2.9236,Bilbao,SPAIN,1724331267,"43.2569, -2.9236",OK
-23.9633,-46.3922,Sao Vicente,BRAZIL,1076857089,"-23.9633, -46.3922",OK
-23.4864,-46.3486,Itaquaquecetuba,BRAZIL,1076942224,"-23.4864, -46.3486",OK
17.9833,-94.55,Minatitlan,MEXICO,1484735713,"17.9833, -94.5500",OK
57.9167,59.9667,Nizhniy Tagil,RUSSIA,1643992310,"57.9167, 59.9667",OK
-25.095,-50.1619,Ponta Grossa,BRAZIL,1076716439,"-25.0950, -50.1619",OK
34.2333,135.1667,Wakayama,JAPAN,1392907296,"34.2333, 135.1667",OK
34.6833,135.7833,Nara,JAPAN,1392520831,"34.6833, 135.7833",OK
38.5019,43.4167,Van,TURKEY,1792940471,"38.5019, 43.4167",OK
-27.4833,-58.8167,Corrientes,ARGENTINA,1032173097,"-27.4833, -58.8167",OK
14.3583,121.0583,San Pedro,PHILIPPINES,1608848483,"14.3583, 121.0583",OK
2.9275,-75.2875,Neiva,COLOMBIA,1170159963,"2.9275, -75.2875",OK
64.55,40.5333,Arkhangelsk,RUSSIA,1643797198,"64.5500, 40.5333",OK
35.8911,139.7908,Koshigaya,JAPAN,1392606124,"35.8911, 139.7908",OK
16.4152,120.5956,Baguio City,PHILIPPINES,1608164766,"16.4152, 120.5956",OK
36.0713,-94.166,Fayetteville,UNITED STATES,1840013368,"36.0713, -94.1660",OK
-29.92,-51.18,Canoas,BRAZIL,1076009922,"-29.9200, -51.1800",OK
33.839,-117.8572,Anaheim,UNITED STATES,1840019322,"33.8390, -117.8572",OK
-22.725,-47.6489,Piracicaba,BRAZIL,1076166252,"-22.7250, -47.6489",OK
53.1167,18,Bydgoszcz,POLAND,1616454014,"53.1167, 18.0000",OK
-23.6464,-70.398,Antofagasta,CHILE,1152734289,"-23.6464, -70.3980",OK
52.0333,113.5,Chita,RUSSIA,1643036673,"52.0333, 113.5000",OK
-8.2828,-35.9758,Caruaru,BRAZIL,1076397475,"-8.2828, -35.9758",OK
34.5277,-117.3536,Victorville,UNITED STATES,1840021731,"34.5277, -117.3536",OK
35.7994,139.4689,Tokorozawa,JAPAN,1392340764,"35.7994, 139.4689",OK
44.9484,34.1,Simferopol,UKRAINE,1804665958,"44.9484, 34.1000",OK
42.1433,24.7489,Plovdiv,BULGARIA,1100436706,"42.1433, 24.7489",OK
15.4802,120.5979,Tarlac City,PHILIPPINES,1608237027,"15.4802, 120.5979",OK
-31.7719,-52.3428,Pelotas,BRAZIL,1076815692,"-31.7719, -52.3428",OK
34.6935,-118.1753,Lancaster,UNITED STATES,1840020516,"34.6935, -118.1753",OK
36.0956,-79.8269,Greensboro,UNITED STATES,1840013356,"36.0956, -79.8269",OK
-33.0153,27.9116,East London,SOUTH AFRICA,1710178149,"-33.0153, 27.9116",OK
-20.5389,-47.4008,Franca,BRAZIL,1076740256,"-20.5389, -47.4008",OK
27.726,-97.3755,Corpus Christi,UNITED STATES,1840019718,"27.7260, -97.3755",OK
51.2333,22.5667,Lublin,POLAND,1616953501,"51.2333, 22.5667",OK
35.9251,139.4858,Kawagoe,JAPAN,1392825080,"35.9251, 139.4858",OK
37.3252,140.4134,Tamuramachi-moriyama,JAPAN,1392675180,"37.3252, 140.4134",OK
14.3333,121.0833,Binan,PHILIPPINES,1608039268,"14.3333, 121.0833",OK
36.9167,34.9,Tarsus,TURKEY,1792003860,"36.9167, 34.9000",OK
38.3453,-0.4831,Alicante,SPAIN,1724923163,"38.3453, -0.4831",OK
-26.0936,28.0064,Randburg,SOUTH AFRICA,1710279034,"-26.0936, 28.0064",OK
21.5083,-104.8931,Tepic,MEXICO,1484433877,"21.5083, -104.8931",OK
-9.3928,-40.5078,Petrolina,BRAZIL,1076843988,"-9.3928, -40.5078",OK
51.4542,-0.9731,Reading,UNITED KINGDOM,1826869043,"51.4542, -0.9731",OK
-19.7478,-47.9319,Uberaba,BRAZIL,1076230331,"-19.7478, -47.9319",OK
54.5964,-5.93,Belfast,UNITED KINGDOM,1826325087,"54.5964, -5.9300",OK
-33.0245,-71.5518,Vina del Mar,CHILE,1152898644,"-33.0245, -71.5518",OK
52.0167,8.5333,Bielefeld,GERMANY,1276112885,"52.0167, 8.5333",OK
-2.8974,-79.0045,Cuenca,ECUADOR,1218041020,"-2.8974, -79.0045",OK
41.0886,-85.1437,Fort Wayne,UNITED STATES,1840008261,"41.0886, -85.1437",OK
13.9411,121.1622,Lipa City,PHILIPPINES,1608615113,"13.9411, 121.1622",OK
-19.7669,-44.0869,Ribeirao das Neves,BRAZIL,1076482220,"-19.7669, -44.0869",OK
36.3833,139.0667,Maebashi,JAPAN,1392333295,"36.3833, 139.0667",OK
40.6403,22.9356,Thessaloniki,GREECE,1300397999,"40.6403, 22.9356",OK
33.7366,-117.8819,Santa Ana,UNITED STATES,1840021964,"33.7366, -117.8819",OK
43.0235,-83.6922,Flint,UNITED STATES,1840002949,"43.0235, -83.6922",OK
-3.9675,122.5947,Kendari,INDONESIA,1360992102,"-3.9675, 122.5947",OK
39.6511,27.8842,Balikesir,TURKEY,1792020804,"39.6511, 27.8842",OK
54.7828,32.0453,Smolensk,RUSSIA,1643627051,"54.7828, 32.0453",OK
43.7706,142.365,Asahikawa,JAPAN,1392380358,"43.7706, 142.3650",OK
40.7384,-73.1887,Islip,UNITED STATES,1840058203,"40.7384, -73.1887",OK
14.5667,121.1167,Cainta,PHILIPPINES,1608314665,"14.5667, 121.1167",OK
50.7339,7.0997,Bonn,GERMANY,1276807850,"50.7339, 7.0997",OK
-25.535,-49.2058,Sao Jose dos Pinhais,BRAZIL,1076174955,"-25.5350, -49.2058",OK
43.8767,-79.2633,Markham,CANADA,1124272698,"43.8767, -79.2633",OK
55.5932,13.0214,Malmo,SWEDEN,1752705818,"55.5932, 13.0214",OK
-26.1625,27.8725,Roodepoort,SOUTH AFRICA,1710090212,"-26.1625, 27.8725",OK
25.5611,-103.4983,Gomez Palacio,MEXICO,1484092318,"25.5611, -103.4983",OK
48.7833,44.7667,Volzhskiy,RUSSIA,1643875527,"48.7833, 44.7667",OK
-6.9197,106.9272,Sukabumi,INDONESIA,1360447543,"-6.9197, 106.9272",OK
35.0846,-78.9776,Fayetteville,UNITED STATES,1840013490,"35.0846, -78.9776",OK
14.5692,121.1325,Taytay,PHILIPPINES,1608530771,"14.5692, 121.1325",OK
33.5589,133.5314,Kochi,JAPAN,1392086071,"33.5589, 133.5314",OK
2.82,-60.6719,Boa Vista,BRAZIL,1076621300,"2.8200, -60.6719",OK
41.1253,16.8667,Bari,ITALY,1380991126,"41.1253, 16.8667",OK
-8.3833,-74.55,Pucallpa,PERU,1604478712,"-8.3833, -74.5500",OK
1.5397,110.3542,Kuching,MALAYSIA,1458462262,"1.5397, 110.3542",OK
-3.7328,-38.6558,Caucaia,BRAZIL,1076870058,"-3.7328, -38.6558",OK
32.3163,-90.2124,Jackson,UNITED STATES,1840014895,"32.3163, -90.2124",OK
38.4458,-122.7067,Santa Rosa,UNITED STATES,1840021488,"38.4458, -122.7067",OK
42.7142,-84.5601,Lansing,UNITED STATES,1840003102,"42.7142, -84.5601",OK
26.2122,127.6789,Naha,JAPAN,1392583118,"26.2122, 127.6789",OK
18.4037,-66.0636,San Juan,PUERTO RICO,1630035577,"18.4037, -66.0636",OK
38.0423,-84.4587,Lexington,UNITED STATES,1840015211,"38.0423, -84.4587",OK
-32.9167,151.75,Newcastle,AUSTRALIA,1036468001,"-32.9167, 151.7500",OK
55.4408,65.3411,Kurgan,RUSSIA,1643201853,"55.4408, 65.3411",OK
19.4208,-102.0628,Uruapan,MEXICO,1484051478,"19.4208, -102.0628",OK
42.2755,-83.7312,Ann Arbor,UNITED STATES,1840003172,"42.2755, -83.7312",OK
-24.1856,-65.2994,San Salvador de Jujuy,ARGENTINA,1032815808,"-24.1856, -65.2994",OK
45.7597,21.23,Timisoara,ROMANIA,1642603121,"45.7597, 21.2300",OK
37.8845,-4.7796,Cordoba,SPAIN,1724706440,"37.8845, -4.7796",OK
14.9,-92.2667,Tapachula,MEXICO,1484997178,"14.9000, -92.2667",OK
59.1333,37.9167,Cherepovets,RUSSIA,1643937680,"59.1333, 37.9167",OK
49.5744,34.5686,Poltava,UKRAINE,1804547489,"49.5744, 34.5686",OK
18.15,-94.4333,Coatzacoalcos,MEXICO,1484016854,"18.1500, -94.4333",OK
22.2553,-97.8686,Tampico,MEXICO,1484060031,"22.2553, -97.8686",OK
46.7667,23.6,Cluj-Napoca,ROMANIA,1642503974,"46.7667, 23.6000",OK
14.275,121.125,Cabuyao,PHILIPPINES,1608604441,"14.2750, 121.1250",OK
59.2167,39.9,Vologda,RUSSIA,1643013685,"59.2167, 39.9000",OK
54.1833,45.1833,Saransk,RUSSIA,1643003229,"54.1833, 45.1833",OK
51.9625,7.6256,Munster,GERMANY,1276714504,"51.9625, 7.6256",OK
35.7333,139.7167,Toshima,JAPAN,1392793312,"35.7333, 139.7167",OK
52.9686,36.0694,Orel,RUSSIA,1643703818,"52.9686, 36.0694",OK
-23.9936,-46.2564,Guaruja,BRAZIL,1076832747,"-23.9936, -46.2564",OK
37.5027,15.0873,Catania,ITALY,1380562508,"37.5027, 15.0873",OK
40.5478,-105.0656,Fort Collins,UNITED STATES,1840020151,"40.5478, -105.0656",OK
36.5436,31.9997,Alanya,TURKEY,1792233416,"36.5436, 31.9997",OK
13.7696,109.2314,Quy Nhon,VIETNAM,1704056461,"13.7696, 109.2314",OK
34.9667,136.6167,Yokkaichi,JAPAN,1392198395,"34.9667, 136.6167",OK
19.2647,-98.8975,Chalco,MEXICO,1484834149,"19.2647, -98.8975",OK
49.4878,8.4661,Mannheim,GERMANY,1276150104,"49.4878, 8.4661",OK
35.25,136.9667,Kasugai,JAPAN,1392431449,"35.2500, 136.9667",OK
-26.9189,-49.0658,Blumenau,BRAZIL,1076618665,"-26.9189, -49.0658",OK
43.1833,-79.2333,St. Catharines,CANADA,1124140229,"43.1833, -79.2333",OK
44.9477,-93.104,St. Paul,UNITED STATES,1840008940,"44.9477, -93.1040",OK
43.04,44.6775,Vladikavkaz,RUSSIA,1643438348,"43.0400, 44.6775",OK
62.0272,129.7319,Yakutsk,RUSSIA,1643163546,"62.0272, 129.7319",OK
23.7333,-99.1333,Ciudad Victoria,MEXICO,1484616519,"23.7333, -99.1333",OK
43.8333,-79.5,Vaughan,CANADA,1124000141,"43.8333, -79.5000",OK
34.6431,134.9975,Oakashicho,JAPAN,1392000137,"34.6431, 134.9975",OK
-6.8883,109.6753,Pekalongan,INDONESIA,1360039434,"-6.8883, 109.6753",OK
41.1333,-8.6167,Vila Nova de Gaia,PORTUGAL,1620040225,"41.1333, -8.6167",OK
-7.9408,-34.8728,Paulista,BRAZIL,1076183876,"-7.9408, -34.8728",OK
4.5389,-75.6725,Armenia,COLOMBIA,1170398459,"4.5389, -75.6725",OK
-33.6,-70.7167,San Bernardo,CHILE,1152050361,"-33.6000, -70.7167",OK
-34.4331,150.8831,Wollongong,AUSTRALIA,1036502269,"-34.4331, 150.8831",OK
48.39,-4.49,Brest,FRANCE,1250882453,"48.3900, -4.4900",OK
-23.0333,-45.55,Taubate,BRAZIL,1076146252,"-23.0333, -45.5500",OK
37.9789,-121.7958,Antioch,UNITED STATES,1840018903,"37.9789, -121.7958",OK
28.0556,-81.9545,Lakeland,UNITED STATES,1840015108,"28.0556, -81.9545",OK
2.4411,-76.6061,Popayan,COLOMBIA,1170764265,"2.4411, -76.6061",OK
-24.0058,-46.4028,Praia Grande,BRAZIL,1076548222,"-24.0058, -46.4028",OK
41.6528,-4.7236,Valladolid,SPAIN,1724133771,"41.6528, -4.7236",OK
-5.1878,-37.3439,Mossoro,BRAZIL,1076461194,"-5.1878, -37.3439",OK
53.1167,23.1667,Bialystok,POLAND,1616443575,"53.1167, 23.1667",OK
68.9667,33.0833,Murmansk,RUSSIA,1643755251,"68.9667, 33.0833",OK
38.7581,30.5386,Afyonkarahisar,TURKEY,1792855788,"38.7581, 30.5386",OK
42.2314,-8.7124,Vigo,SPAIN,1724045676,"42.2314, -8.7124",OK
-38.7167,-62.2667,Bahia Blanca,ARGENTINA,1032795766,"-38.7167, -62.2667",OK
36.5804,36.17,Iskenderun,TURKEY,1792962911,"36.5804, 36.1700",OK
-22.505,-43.1789,Petropolis,BRAZIL,1076352504,"-22.5050, -43.1789",OK
51.4939,31.2947,Chernihiv,UKRAINE,1804565996,"51.4939, 31.2947",OK
23.45,91.2,Comilla,BANGLADESH,1050609330,"23.4500, 91.2000",OK
40.7845,-73.5139,Oyster Bay,UNITED STATES,1840058379,"40.7845, -73.5139",OK
-33.0458,-71.6197,Valparaiso,CHILE,1152337970,"-33.0458, -71.6197",OK
-22.5647,-47.4017,Limeira,BRAZIL,1076508566,"-22.5647, -47.4017",OK
25.75,89.25,Rangpur,BANGLADESH,1050667437,"25.7500, 89.2500",OK
38.3686,34.0297,Aksaray,TURKEY,1792650390,"38.3686, 34.0297",OK
14.6667,120.9417,Navotas,PHILIPPINES,1608538447,"14.6667, 120.9417",OK
40.5489,34.9533,Corum,TURKEY,1792065200,"40.5489, 34.9533",OK
52.7167,41.4333,Tambov,RUSSIA,1643802687,"52.7167, 41.4333",OK
47.1622,27.5889,Iasi,ROMANIA,1642367695,"47.1622, 27.5889",OK
43.3125,45.6986,Groznyy,RUSSIA,1643049853,"43.3125, 45.6986",OK
-27.4514,-58.9867,Resistencia,ARGENTINA,1032720891,"-27.4514, -58.9867",OK
45.65,25.6,Brasov,ROMANIA,1642328429,"45.6500, 25.6000",OK
-15.4908,-70.1269,Juliaca,PERU,1604174464,"-15.4908, -70.1269",OK
39.6833,141.15,Morioka,JAPAN,1392981957,"39.6833, 141.1500",OK
40.2236,-74.7641,Trenton,UNITED STATES,1840001383,"40.2236, -74.7641",OK
47.75,7.34,Mulhouse,FRANCE,1250218452,"47.7500, 7.3400",OK
40.809,-96.6788,Lincoln,UNITED STATES,1840009357,"40.8090, -96.6788",OK
9.2994,-75.3958,Sincelejo,COLOMBIA,1170364198,"9.2994, -75.3958",OK
33.0502,-96.7487,Plano,UNITED STATES,1840020662,"33.0502, -96.7487",OK
-12.6978,-38.3239,Camacari,BRAZIL,1076610862,"-12.6978, -38.3239",OK
47.9025,1.909,Orleans,FRANCE,1250441405,"47.9025, 1.9090",OK
-23.5428,-46.3108,Suzano,BRAZIL,1076830201,"-23.5428, -46.3108",OK
-18.0556,-70.2483,Tacna,PERU,1604388134,"-18.0556, -70.2483",OK
44.1733,28.6383,Constanta,ROMANIA,1642851858,"44.1733, 28.6383",OK
32.8,34.9833,Haifa,ISRAEL,1376133727,"32.8000, 34.9833",OK
19.6333,-99.0931,Coacalco,MEXICO,1484929782,"19.6333, -99.0931",OK
-7.2342,-39.4094,Crato,BRAZIL,1076894967,"-7.2342, -39.4094",OK
45.8353,1.2625,Limoges,FRANCE,1250736774,"45.8353, 1.2625",OK
41.5563,-90.6052,Davenport,UNITED STATES,1840007081,"41.5563, -90.6052",OK
37.7608,140.4733,Fukushima,JAPAN,1392570027,"37.7608, 140.4733",OK
-29.6839,-53.8069,Santa Maria,BRAZIL,1076178738,"-29.6839, -53.8069",OK
-23.6019,-46.7528,Taboao da Serra,BRAZIL,1076000585,"-23.6019, -46.7528",OK
-5.3689,-49.1178,Maraba,BRAZIL,1076974144,"-5.3689, -49.1178",OK
-38.7399,-72.5901,Temuco,CHILE,1152318955,"-38.7399, -72.5901",OK
42.2597,-89.0641,Rockford,UNITED STATES,1840009132,"42.2597, -89.0641",OK
-6.8667,109.1333,Tegal,INDONESIA,1360035814,"-6.8667, 109.1333",OK
40.7245,-74.1725,Newark,UNITED STATES,1840002791,"40.7245, -74.1725",OK
2.96,99.06,Pematangsiantar,INDONESIA,1360769496,"2.9600, 99.0600",OK
61.7833,34.35,Petrozavodsk,RUSSIA,1643319966,"61.7833, 34.3500",OK
41.6767,-86.2696,South Bend,UNITED STATES,1840009241,"41.6767, -86.2696",OK
49.4444,32.0597,Cherkasy,UKRAINE,1804459212,"49.4444, 32.0597",OK
50.0825,8.24,Wiesbaden,GERMANY,1276652118,"50.0825, 8.2400",OK
57.7667,40.9333,Kostroma,RUSSIA,1643869304,"57.7667, 40.9333",OK
42.379,-88.0811,Round Lake Beach,UNITED STATES,1840011171,"42.3790, -88.0811",OK
-18.8508,-41.9489,Governador Valadares,BRAZIL,1076271003,"-18.8508, -41.9489",OK
50.25,19,Katowice,POLAND,1616798495,"50.2500, 19.0000",OK
34.74,10.76,Sfax,TUNISIA,1788741658,"34.7400, 10.7600",OK
60.9389,76.595,Nizhnevartovsk,RUSSIA,1643786132,"60.9389, 76.5950",OK
20.1,-98.75,Pachuca,MEXICO,1484575026,"20.1000, -98.7500",OK
-7.2128,-39.315,Juazeiro do Norte,BRAZIL,1076912078,"-7.2128, -39.3150",OK
49.42,27,Khmelnytskyi,UKRAINE,1804347108,"49.4200, 27.0000",OK
-27.3667,-55.8969,Posadas,ARGENTINA,1032970696,"-27.3667, -55.8969",OK
45.4833,-75.65,Gatineau,CANADA,1124722129,"45.4833, -75.6500",OK
42.2833,-83,Windsor,CANADA,1124261024,"42.2833, -83.0000",OK
18.4617,-97.3928,Tehuacan,MEXICO,1484817336,"18.4617, -97.3928",OK
32.6281,-117.0145,Chula Vista,UNITED STATES,1840019350,"32.6281, -117.0145",OK
52.9167,-1.4667,Derby,UNITED KINGDOM,1826333435,"52.9167, -1.4667",OK
34.7186,136.5056,Tsu,JAPAN,1392082102,"34.7186, 136.5056",OK
44.0563,-123.1173,Eugene,UNITED STATES,1840020007,"44.0563, -123.1173",OK
43.5333,-5.7,Gijon,SPAIN,1724170659,"43.5333, -5.7000",OK
23.48,120.4497,Chiayi,TAIWAN,1158867217,"23.4800, 120.4497",OK
-10.2128,-48.3603,Palmas,BRAZIL,1076052802,"-10.2128, -48.3603",OK
40.8222,140.7475,Aomori,JAPAN,1392083898,"40.8222, 140.7475",OK
35.6581,139.7514,Minato,JAPAN,1392294093,"35.6581, 139.7514",OK
35.6689,139.4778,Fuchu,JAPAN,1392370709,"35.6689, 139.4778",OK
50.3714,-4.1422,Plymouth,UNITED KINGDOM,1826947183,"50.3714, -4.1422",OK
-0.2542,-79.1719,Santo Domingo de los Colorados,ECUADOR,1218148017,"-0.2542, -79.1719",OK
50.2544,28.6578,Zhytomyr,UKRAINE,1804540656,"50.2544, 28.6578",OK
60.21,24.66,Espoo,FINLAND,1246357316,"60.2100, 24.6600",OK
7.0697,-73.0978,Floridablanca,COLOMBIA,1170331200,"7.0697, -73.0978",OK
40.8075,-81.3677,Canton,UNITED STATES,1840000963,"40.8075, -81.3677",OK
56.6328,47.8958,Yoshkar-Ola,RUSSIA,1643701904,"56.6328, 47.8958",OK
-5.9158,-35.2628,Parnamirim,BRAZIL,1076600360,"-5.9158, -35.2628",OK
43.4833,43.6167,Nalchik,RUSSIA,1643746064,"43.4833, 43.6167",OK
20.5703,-101.1972,Salamanca,MEXICO,1484741627,"20.5703, -101.1972",OK
40.0806,29.5097,Inegol,TURKEY,1792592205,"40.0806, 29.5097",OK
48.2908,25.9344,Chernivtsi,UKRAINE,1804652872,"48.2908, 25.9344",OK
-22.8219,-47.2669,Sumare,BRAZIL,1076684312,"-22.8219, -47.2669",OK
33.5659,-101.8878,Lubbock,UNITED STATES,1840020604,"33.5659, -101.8878",OK
50.9068,34.7992,Sumy,UKRAINE,1804489982,"50.9068, 34.7992",OK
14.07,121.325,San Pablo,PHILIPPINES,1608801564,"14.0700, 121.3250",OK
40.34,-75.9267,Reading,UNITED STATES,1840001185,"40.3400, -75.9267",OK
28.0118,-81.7017,Winter Haven,UNITED STATES,1840015970,"28.0118, -81.7017",OK
-19.4678,-42.5369,Ipatinga,BRAZIL,1076484921,"-19.4678, -42.5369",OK
39.4242,29.9833,Kutahya,TURKEY,1792671735,"39.4242, 29.9833",OK
47.0749,15.4409,Graz,AUSTRIA,1040184559,"47.0749, 15.4409",OK
27.7931,-82.6652,St. Petersburg,UNITED STATES,1840015977,"27.7931, -82.6652",OK
-17.9667,-67.1167,Oruro,BOLIVIA,1068626742,"-17.9667, -67.1167",OK
37.075,36.25,Osmaniye,TURKEY,1792340207,"37.0750, 36.2500",OK
30.2084,-92.0323,Lafayette,UNITED STATES,1840015044,"30.2084, -92.0323",OK
1.6667,101.45,Dumai,INDONESIA,1360153292,"1.6667, 101.4500",OK
51.0536,3.7253,Gent,BELGIUM,1056062897,"51.0536, 3.7253",OK
-38.15,144.35,Geelong,AUSTRALIA,1036870987,"-38.1500, 144.3500",OK
41.1597,27.8028,Corlu,TURKEY,1792855069,"41.1597, 27.8028",OK
44.84,-0.58,Bordeaux,FRANCE,1250449238,"44.8400, -0.5800",OK
-22.5231,-44.1042,Volta Redonda,BRAZIL,1076343513,"-22.5231, -44.1042",OK
-23.5111,-46.8764,Barueri,BRAZIL,1076211114,"-23.5111, -46.8764",OK
27.5629,-99.4875,Laredo,UNITED STATES,1840021002,"27.5629, -99.4875",OK
40.7161,-74.0682,Jersey City,UNITED STATES,1840003600,"40.7161, -74.0682",OK
45.4397,12.3319,Venice,ITALY,1380660414,"45.4397, 12.3319",OK
25.65,-100.0833,Ciudad Benito Juarez,MEXICO,1484140727,"25.6500, -100.0833",OK
-24.9558,-53.4553,Cascavel,BRAZIL,1076509946,"-24.9558, -53.4553",OK
35.3231,139.3422,Hiratsuka,JAPAN,1392311050,"35.3231, 139.3422",OK
33.2826,-111.8516,Chandler,UNITED STATES,1840019309,"33.2826, -111.8516",OK
40.7778,30.4028,Sakarya,TURKEY,1792191587,"40.7778, 30.4028",OK
7.4478,125.8078,Tagum,PHILIPPINES,1608755366,"7.4478, 125.8078",OK
36.0641,136.2196,Fukui,JAPAN,1392897510,"36.0641, 136.2196",OK
35.8256,139.8056,Soka,JAPAN,1392354483,"35.8256, 139.8056",OK
25.7835,-108.9937,Los Mochis,MEXICO,1484443585,"25.7835, -108.9937",OK
-5.5258,-47.4758,Imperatriz,BRAZIL,1076486025,"-5.5258, -47.4758",OK
19.52,-98.88,Texcoco,MEXICO,1484653265,"19.5200, -98.8800",OK
37.7667,30.55,Isparta,TURKEY,1792105249,"37.7667, 30.5500",OK
-25.54,-54.5875,Foz do Iguacu,BRAZIL,1076025805,"-25.5400, -54.5875",OK
45.4386,10.9928,Verona,ITALY,1380324879,"45.4386, 10.9928",OK
33.2015,-96.6669,McKinney,UNITED STATES,1840020657,"33.2015, -96.6669",OK
20.6275,-87.0811,Playa del Carmen,MEXICO,1484559458,"20.6275, -87.0811",OK
52.5833,-2.1333,Wolverhampton,UNITED KINGDOM,1826636841,"52.5833, -2.1333",OK
60.3925,5.3233,Bergen,NORWAY,1578465701,"60.3925, 5.3233",OK
30.4551,-84.2526,Tallahassee,UNITED STATES,1840015913,"30.4551, -84.2526",OK
14.6969,121.1219,San Mateo,PHILIPPINES,1608557779,"14.6969, 121.1219",OK
-30.0808,-51.0228,Viamao,BRAZIL,1076314777,"-30.0808, -51.0228",OK
-29.9433,-50.9939,Gravatai,BRAZIL,1076919841,"-29.9433, -50.9939",OK
-7.8166,112.0119,Kediri,INDONESIA,1360498846,"-7.8166, 112.0119",OK
34.0667,134.55,Tokushima,JAPAN,1392795984,"34.0667, 134.5500",OK
14.8433,120.8114,Malolos,PHILIPPINES,1608358783,"14.8433, 120.8114",OK
24.1422,-110.3108,La Paz,MEXICO,1484005187,"24.1422, -110.3108",OK
34.21,-77.8866,Wilmington,UNITED STATES,1840015576,"34.2100, -77.8866",OK
5.3303,103.1408,Kuala Terengganu,MALAYSIA,1458475563,"5.3303, 103.1408",OK
9.75,118.75,Puerto Princesa,PHILIPPINES,1608455700,"9.7500, 118.7500",OK
42.85,-2.6833,Vitoria-Gasteiz,SPAIN,1724975338,"42.8500, -2.6833",OK
32.3473,-86.2666,Montgomery,UNITED STATES,1840008353,"32.3473, -86.2666",OK
33.3101,-111.7463,Gilbert,UNITED STATES,1840021947,"33.3101, -111.7463",OK
31.95,34.8,Rishon LeZiyyon,ISRAEL,1376642268,"31.9500, 34.8000",OK
-15.65,-56.14,Varzea Grande,BRAZIL,1076359879,"-15.6500, -56.1400",OK
-33.4167,-70.5833,Las Condes,CHILE,1152858037,"-33.4167, -70.5833",OK
33.5791,-112.2311,Glendale,UNITED STATES,1840020563,"33.5791, -112.2311",OK
-27.7844,-64.2669,Santiago del Estero,ARGENTINA,1032492280,"-27.7844, -64.2669",OK
41.7733,140.7261,Hakodate,JAPAN,1392708558,"41.7733, 140.7261",OK
38.6833,29.4,Usak,TURKEY,1792360822,"38.6833, 29.4000",OK
15.2167,120.5833,Mabalacat,PHILIPPINES,1608402560,"15.2167, 120.5833",OK
35.6506,139.5408,Chofugaoka,JAPAN,1392692794,"35.6506, 139.5408",OK
50.6197,26.2514,Rivne,UKRAINE,1804144712,"50.6197, 26.2514",OK
54.5189,18.5319,Gdynia,POLAND,1616385189,"54.5189, 18.5319",OK
-2.21,113.92,Palangkaraya,INDONESIA,1360268553,"-2.2100, 113.9200",OK
14.2306,120.975,Silang,PHILIPPINES,1608301996,"14.2306, 120.9750",OK
50.7762,6.0838,Aachen,GERMANY,1276805572,"50.7762, 6.0838",OK
54.3233,10.1394,Kiel,GERMANY,1276305306,"54.3233, 10.1394",OK
-29.6778,-51.1308,Novo Hamburgo,BRAZIL,1076221386,"-29.6778, -51.1308",OK
35.4693,139.4616,Yato,JAPAN,1392469032,"35.4693, 139.4616",OK
-31.7444,-60.5175,Parana,ARGENTINA,1032266693,"-31.7444, -60.5175",OK
38.25,140.3333,Yamagata,JAPAN,1392300081,"38.2500, 140.3333",OK
36.0333,140.0667,Tsukuba-kenkyugakuen-toshi,JAPAN,1392112466,"36.0333, 140.0667",OK
-34.6653,-58.7275,Merlo,ARGENTINA,1032232613,"-34.6653, -58.7275",OK
-22.6528,-43.0408,Mage,BRAZIL,1076385139,"-22.6528, -43.0408",OK
61.6667,50.8167,Syktyvkar,RUSSIA,1643573386,"61.6667, 50.8167",OK
55.8892,37.445,Khimki,RUSSIA,1643601857,"55.8892, 37.4450",OK
-25.2919,-49.2239,Colombo,BRAZIL,1076976439,"-25.2919, -49.2239",OK
50.8333,12.9167,Chemnitz,GERMANY,1276519956,"50.8333, 12.9167",OK
52.1333,-106.6833,Saskatoon,CANADA,1124612546,"52.1333, -106.6833",OK
6.1726,-75.6096,Itagui,COLOMBIA,1170708072,"6.1726, -75.6096",OK
51.6167,-3.95,Abertawe,UNITED KINGDOM,1826574888,"51.6167, -3.9500",OK
13.0869,109.3086,Tuy Hoa,VIETNAM,1704697424,"13.0869, 109.3086",OK
35.1614,138.6764,Fuji,JAPAN,1392249213,"35.1614, 138.6764",OK
38.6131,27.4258,Manisa,TURKEY,1792804328,"38.6131, 27.4258",OK
41.1495,-8.6108,Porto,PORTUGAL,1620356810,"41.1495, -8.6108",OK
11.2444,125.0039,Tacloban,PHILIPPINES,1608710592,"11.2444, 125.0039",OK
-22.7475,-42.8558,Itaborai,BRAZIL,1076964860,"-22.7475, -42.8558",OK
41.6722,-70.3599,Barnstable,UNITED STATES,1840031233,"41.6722, -70.3599",OK
32.0833,34.8833,Petah Tiqwa,ISRAEL,1376362310,"32.0833, 34.8833",OK
36.8945,-76.259,Norfolk,UNITED STATES,1840003869,"36.8945, -76.2590",OK
-34.7708,-58.6464,Gonzalez Catan,ARGENTINA,1032883563,"-34.7708, -58.6464",OK
-19.4658,-44.2469,Sete Lagoas,BRAZIL,1076863850,"-19.4658, -44.2469",OK
-6.4833,-76.3667,Tarapoto,PERU,1604622202,"-6.4833, -76.3667",OK
20.3833,-99.9833,San Juan del Rio,MEXICO,1484890205,"20.3833, -99.9833",OK
-22.0178,-47.8908,Sao Carlos,BRAZIL,1076673445,"-22.0178, -47.8908",OK
37.5265,-121.9852,Fremont,UNITED STATES,1840020292,"37.5265, -121.9852",OK
51.4828,11.9697,Halle,GERMANY,1276167077,"51.4828, 11.9697",OK
-29.76,-51.1469,Sao Leopoldo,BRAZIL,1076834293,"-29.7600, -51.1469",OK
35.7333,139.7833,Arakawa,JAPAN,1392229262,"35.7333, 139.7833",OK
40.8417,31.1583,Duzce,TURKEY,1792999306,"40.8417, 31.1583",OK
-20.1389,-44.8839,Divinopolis,BRAZIL,1076716552,"-20.1389, -44.8839",OK
56.1572,10.2107,Aarhus,DENMARK,1208841031,"56.1572, 10.2107",OK
46.1978,-119.1732,Kennewick,UNITED STATES,1840018481,"46.1978, -119.1732",OK
-42.8806,147.325,Hobart,AUSTRALIA,1036679838,"-42.8806, 147.3250",OK
32.91,-96.6305,Garland,UNITED STATES,1840020707,"32.9100, -96.6305",OK
40.51,141.54,Hachimancho,JAPAN,1392220933,"40.5100, 141.5400",OK
45.5333,-73.5167,Longueuil,CANADA,1124122753,"45.5333, -73.5167",OK
48.7167,21.25,Kosice,SLOVAKIA,1703452690,"48.7167, 21.2500",OK
25.3994,55.4797,`Ajman,UNITED ARAB EMIRATES,1784337875,"25.3994, 55.4797",OK
50.6278,3.0583,Lille,FRANCE,1250071961,"50.6278, 3.0583",OK
5.55,95.3175,Banda Aceh,INDONESIA,1360353144,"5.5500, 95.3175",OK
49.49,0.1,Le Havre,FRANCE,1250775297,"49.4900, 0.1000",OK
-26.2547,28.4428,Springs,SOUTH AFRICA,1710058382,"-26.2547, 28.4428",OK
48.9228,24.7106,Ivano-Frankivsk,UKRAINE,1804208152,"48.9228, 24.7106",OK
-34.7167,-58.2667,Quilmes,ARGENTINA,1032880202,"-34.7167, -58.2667",OK
55.6333,51.8167,Nizhnekamsk,RUSSIA,1643493938,"55.6333, 51.8167",OK
36.3276,-119.3269,Visalia,UNITED STATES,1840021639,"36.3276, -119.3269",OK
34.7661,135.6281,Neya,JAPAN,1392993634,"34.7661, 135.6281",OK
47.7,40.2333,Shakhty,RUSSIA,1643542365,"47.7000, 40.2333",OK
37.1781,-3.6008,Granada,SPAIN,1724929320,"37.1781, -3.6008",OK
38.2669,-0.6983,Elche,SPAIN,1724611437,"38.2669, -0.6983",OK
48.5076,34.6132,Kamianske,UKRAINE,1804033242,"48.5076, 34.6132",OK
-8.1152,115.0944,Singaraja,INDONESIA,1360426282,"-8.1152, 115.0944",OK
-22.3708,-41.7869,Macae,BRAZIL,1076074287,"-22.3708, -41.7869",OK
4.4147,114.0089,Miri,MALAYSIA,1458079883,"4.4147, 114.0089",OK
-3.2667,-79.9667,Machala,ECUADOR,1218378191,"-3.2667, -79.9667",OK
26.9103,-101.4222,Monclova,MEXICO,1484281759,"26.9103, -101.4222",OK
11.93,79.83,Puducherry,INDIA,1356368903,"11.9300, 79.8300",OK
14.8333,120.2833,Olongapo,PHILIPPINES,1608001640,"14.8333, 120.2833",OK
38.1936,15.5542,Messina,ITALY,1380622386,"38.1936, 15.5542",OK
49.0775,33.4239,Kremenchuk,UKRAINE,1804343754,"49.0775, 33.4239",OK
42.7491,-71.491,Nashua,UNITED STATES,1840002984,"42.7491, -71.4910",OK
-2.4431,-54.7083,Santarem,BRAZIL,1076256494,"-2.4431, -54.7083",OK
38.8786,-77.1011,Arlington,UNITED STATES,1840006112,"38.8786, -77.1011",OK
39.9651,-76.7315,York,UNITED STATES,1840001472,"39.9651, -76.7315",OK
33.2667,130.3,Saga,JAPAN,1392618841,"33.2667, 130.3000",OK
49.2667,-122.9667,Burnaby,CANADA,1124817304,"49.2667, -122.9667",OK
-34.1654,-70.7398,Rancagua,CHILE,1152672356,"-34.1654, -70.7398",OK
56.2333,43.45,Dzerzhinsk,RUSSIA,1643076798,"56.2333, 43.4500",OK
52.04,-0.76,Milton Keynes,UNITED KINGDOM,1826291745,"52.0400, -0.7600",OK
-22.2139,-49.9458,Marilia,BRAZIL,1076042151,"-22.2139, -49.9458",OK
56.1667,101.6167,Bratsk,RUSSIA,1643485535,"56.1667, 101.6167",OK
-23.0903,-47.2181,Indaiatuba,BRAZIL,1076347789,"-23.0903, -47.2181",OK
6.1719,-75.5803,Envigado,COLOMBIA,1170785909,"6.1719, -75.5803",OK
47.9947,7.8497,Freiburg im Breisgau,GERMANY,1276371228,"47.9947, 7.8497",OK
-3.8769,-38.6258,Maracanau,BRAZIL,1076848743,"-3.8769, -38.6258",OK
35.9775,139.5933,Ageoshimo,JAPAN,1392046664,"35.9775, 139.5933",OK
-38.9573,-68.0455,Neuquen,ARGENTINA,1032525768,"-38.9573, -68.0455",OK
-34.75,-58.3833,Banfield,ARGENTINA,1032997685,"-34.7500, -58.3833",OK
-22.8789,-42.0189,Cabo Frio,BRAZIL,1076449553,"-22.8789, -42.0189",OK
0.9,108.9833,Singkawang,INDONESIA,1360906363,"0.9000, 108.9833",OK
37.9881,-87.5341,Evansville,UNITED STATES,1840013730,"37.9881, -87.5341",OK
-23.6039,-46.9189,Cotia,BRAZIL,1076098590,"-23.6039, -46.9189",OK
48.5103,32.2667,Kropyvnytskyi,UKRAINE,1804374492,"48.5103, 32.2667",OK
50.8096,19.1222,Czestochowa,POLAND,1616881632,"50.8096, 19.1222",OK
-16.4708,-54.6358,Rondonopolis,BRAZIL,1076627175,"-16.4708, -54.6358",OK
51.3333,6.5667,Krefeld,GERMANY,1276149829,"51.3333, 6.5667",OK
14.3944,120.8531,Tanza,PHILIPPINES,1608010777,"14.3944, 120.8531",OK
14.7581,120.9481,Marilao,PHILIPPINES,1608371779,"14.7581, 120.9481",OK
35.7126,139.78,Taito,JAPAN,1392662678,"35.7126, 139.7800",OK
42.5,27.4667,Burgas,BULGARIA,1100365645,"42.5000, 27.4667",OK
33.3858,-112.3236,Avondale,UNITED STATES,1840019310,"33.3858, -112.3236",OK
-7.75,113.2167,Probolinggo,INDONESIA,1360138476,"-7.7500, 113.2167",OK
-23.305,-45.9658,Jacarei,BRAZIL,1076592769,"-23.3050, -45.9658",OK
19.6083,-99.1694,Buenavista,MEXICO,1484774061,"19.6083, -99.1694",OK
41.5611,2.0081,Tarrasa,SPAIN,1724377964,"41.5611, 2.0081",OK
-21.7939,-48.1758,Araraquara,BRAZIL,1076251019,"-21.7939, -48.1758",OK
31.3186,-110.9458,Heroica Nogales,MEXICO,1484364591,"31.3186, -110.9458",OK
6.4489,3.3589,Apapa,NIGERIA,1566625487,"6.4489, 3.3589",OK
-23.5489,-46.9342,Itapevi,BRAZIL,1076008789,"-23.5489, -46.9342",OK
19.85,-90.5306,Campeche,MEXICO,1484431512,"19.8500, -90.5306",OK
55.9167,37.8167,Korolev,RUSSIA,1643323167,"55.9167, 37.8167",OK
-22.2208,-54.8058,Dourados,BRAZIL,1076544482,"-22.2208, -54.8058",OK
61.4981,23.7608,Tampere,FINLAND,1246964318,"61.4981, 23.7608",OK
36.2404,137.97,Minamiozuma,JAPAN,1392373962,"36.2404, 137.9700",OK
50.2578,127.5364,Blagoveshchensk,RUSSIA,1643308239,"50.2578, 127.5364",OK
58.521,31.2758,Velikiy Novgorod,RUSSIA,1643774241,"58.5210, 31.2758",OK
31.7978,34.6503,Ashdod,ISRAEL,1376458766,"31.7978, 34.6503",OK
37.9667,34.6792,Nigde,TURKEY,1792867993,"37.9667, 34.6792",OK
-27.0958,-52.6178,Chapeco,BRAZIL,1076258255,"-27.0958, -52.6178",OK
-26.107,28.0517,Sandton,SOUTH AFRICA,1710113163,"-26.1070, 28.0517",OK
51.2981,37.835,Staryy Oskol,RUSSIA,1643807951,"51.2981, 37.8350",OK
-26.9078,-48.6619,Itajai,BRAZIL,1076348188,"-26.9078, -48.6619",OK
22.1833,-100.9333,Soledad de Graciano Sanchez,MEXICO,1484610487,"22.1833, -100.9333",OK
-22.1258,-51.3889,Presidente Prudente,BRAZIL,1076239965,"-22.1258, -51.3889",OK
-34.5167,-58.7667,Jose C. Paz,ARGENTINA,1032741145,"-34.5167, -58.7667",OK
-26.1847,-58.1758,Formosa,ARGENTINA,1032802536,"-26.1847, -58.1758",OK
41.5483,2.1075,Sabadell,SPAIN,1724348384,"41.5483, 2.1075",OK
-23.9,29.45,Polokwane,SOUTH AFRICA,1710908010,"-23.9000, 29.4500",OK
51.4036,21.1567,Radom,POLAND,1616327727,"51.4036, 21.1567",OK
50.7478,25.3244,Lutsk,UKRAINE,1804014744,"50.7478, 25.3244",OK
43.36,-5.845,Oviedo,SPAIN,1724090743,"43.3600, -5.8450",OK
44.2779,-88.3891,Appleton,UNITED STATES,1840002400,"44.2779, -88.3891",OK
-9.4139,-40.5028,Juazeiro,BRAZIL,1076632040,"-9.4139, -40.5028",OK
-14.7858,-39.28,Itabuna,BRAZIL,1076003792,"-14.7858, -39.2800",OK
51.544,-0.1027,Islington,UNITED KINGDOM,1826267810,"51.5440, -0.1027",OK
18.8942,-96.9347,Cordoba,MEXICO,1484179679,"18.8942, -96.9347",OK
29.3242,-100.9317,Ciudad Acuna,MEXICO,1484828397,"29.3242, -100.9317",OK
4.0847,-76.1986,Tulua,COLOMBIA,1170721938,"4.0847, -76.1986",OK
50,8.2667,Mainz,GERMANY,1276801317,"50.0000, 8.2667",OK
-22.8583,-47.22,Hortolandia,BRAZIL,1076591779,"-22.8583, -47.2200",OK
1.4472,125.1978,Bitung,INDONESIA,1360695939,"1.4472, 125.1978",OK
38.4789,-0.7967,Petrel,SPAIN,1724000064,"38.4789, -0.7967",OK
32.3328,34.86,Netanya,ISRAEL,1376203187,"32.3328, 34.8600",OK
6.1167,100.3667,Alor Setar,MALAYSIA,1458273978,"6.1167, 100.3667",OK
35.7425,-81.323,Hickory,UNITED STATES,1840014524,"35.7425, -81.3230",OK
51.8783,-0.4147,Luton,UNITED KINGDOM,1826630574,"51.8783, -0.4147",OK
47.2431,-122.4531,Tacoma,UNITED STATES,1840021129,"47.2431, -122.4531",OK
57.15,-2.11,Aberdeen,UNITED KINGDOM,1826324306,"57.1500, -2.1100",OK
53.8697,10.6864,Lubeck,GERMANY,1276852342,"53.8697, 10.6864",OK
52.63,1.297,Norwich,UNITED KINGDOM,1826688051,"52.6300, 1.2970",OK
37.6,-0.9819,Cartagena,SPAIN,1724143241,"37.6000, -0.9819",OK
34.1417,-117.2946,San Bernardino,UNITED STATES,1840021728,"34.1417, -117.2946",OK
60.3,25.0333,Vantaa,FINLAND,1246957545,"60.3000, 25.0333",OK
30.5852,-96.296,College Station,UNITED STATES,1840019570,"30.5852, -96.2960",OK
42.2749,-85.5882,Kalamazoo,UNITED STATES,1840003185,"42.2749, -85.5882",OK
50.4547,-104.6067,Regina,CANADA,1124342541,"50.4547, -104.6067",OK
34.1914,-118.8755,Thousand Oaks,UNITED STATES,1840021844,"34.1914, -118.8755",OK
37.2785,-79.958,Roanoke,UNITED STATES,1840003858,"37.2785, -79.9580",OK
46.2,6.15,Geneva,SWITZERLAND,1756810813,"46.2000, 6.1500",OK
-29.99,-51.0839,Alvorada,BRAZIL,1076999998,"-29.9900, -51.0839",OK
-17.5103,-63.1647,Warnes,BOLIVIA,1068890339,"-17.5103, -63.1647",OK
22.25,-97.8333,Ciudad Madero,MEXICO,1484185237,"22.2500, -97.8333",OK
36.6817,-6.1378,Jerez de la Frontera,SPAIN,1724866806,"36.6817, -6.1378",OK
33.9244,-117.2045,Moreno Valley,UNITED STATES,1840020552,"33.9244, -117.2045",OK
34.2492,132.5658,Kure,JAPAN,1392991987,"34.2492, 132.5658",OK
1.8067,-78.7647,Tumaco,COLOMBIA,1170504978,"1.8067, -78.7647",OK
45.4064,11.8778,Padova,ITALY,1380964615,"45.4064, 11.8778",OK
42.8167,-1.65,Pamplona,SPAIN,1724483329,"42.8167, -1.6500",OK
44.9386,26.0225,Ploiesti,ROMANIA,1642169731,"44.9386, 26.0225",OK
-28.6775,-49.3697,Criciuma,BRAZIL,1076000206,"-28.6775, -49.3697",OK
19.2511,-99.6047,Metepec,MEXICO,1484782768,"19.2511, -99.6047",OK
-32.035,-52.0989,Rio Grande,BRAZIL,1076567920,"-32.0350, -52.0989",OK
57.8167,28.3333,Pskov,RUSSIA,1643877414,"57.8167, 28.3333",OK
49.7956,30.1167,Bila Tserkva,UKRAINE,1804758853,"49.7956, 30.1167",OK
40.6924,-73.3585,Babylon,UNITED STATES,1840005142,"40.6924, -73.3585",OK
7.0675,-73.8472,Barrancabermeja,COLOMBIA,1170362340,"7.0675, -73.8472",OK
-20.8489,-41.1128,Cachoeiro de Itapemirim,BRAZIL,1076536175,"-20.8489, -41.1128",OK
28.4667,-16.25,Santa Cruz,SPAIN,1724813158,"28.4667, -16.2500",OK
51.9,-8.4731,Cork,IRELAND,1372221853,"51.9000, -8.4731",OK
6.7804,79.88,Moratuwa,SRI LANKA,1144324309,"6.7804, 79.8800",OK
31.2589,34.7978,Beersheba,ISRAEL,1376023307,"31.2589, 34.7978",OK
27.0577,-82.1975,North Port,UNITED STATES,1840015120,"27.0577, -82.1975",OK
52.3758,5.2256,Almere,NETHERLANDS,1528683566,"52.3758, 5.2256",OK
-3.2967,102.8617,Lubuklinggau,INDONESIA,1360359449,"-3.2967, 102.8617",OK
46.8652,-96.8292,Fargo,UNITED STATES,1840000177,"46.8652, -96.8292",OK
-36.849,174.543,Waitakere,NEW ZEALAND,1554034359,"-36.8490, 174.5430",OK
44.515,-87.9896,Green Bay,UNITED STATES,1840002344,"44.5150, -87.9896",OK
-1.0544,-80.4544,Portoviejo,ECUADOR,1218169586,"-1.0544, -80.4544",OK
48.3,14.2833,Linz,AUSTRIA,1040261171,"48.3000, 14.2833",OK
45.6503,13.7703,Trieste,ITALY,1380102581,"45.6503, 13.7703",OK
35.6833,139.5594,Kamirenjaku,JAPAN,1392889022,"35.6833, 139.5594",OK
42.6056,-5.57,Leon,SPAIN,1724907542,"42.6056, -5.5700",OK
55.9167,37.7333,Mytishchi,RUSSIA,1643322494,"55.9167, 37.7333",OK
40.7333,31.6,Bolu,TURKEY,1792807068,"40.7333, 31.6000",OK
35.1988,-101.8311,Amarillo,UNITED STATES,1840019156,"35.1988, -101.8311",OK
0.7833,127.3667,Ternate,INDONESIA,1360041663,"0.7833, 127.3667",OK
32.0807,34.8338,Bene Beraq,ISRAEL,1376944837,"32.0807, 34.8338",OK
-28.2628,-52.4069,Passo Fundo,BRAZIL,1076763340,"-28.2628, -52.4069",OK
35.7225,140.0997,Yachiyo,JAPAN,1392929073,"35.7225, 140.0997",OK
-29.9532,-71.338,Coquimbo,CHILE,1152038253,"-29.9532, -71.3380",OK
50.9787,11.0328,Erfurt,GERMANY,1276924655,"50.9787, 11.0328",OK
53.2167,6.5667,Groningen,NETHERLANDS,1528295161,"53.2167, 6.5667",OK
50.4167,4.4442,Charleroi,BELGIUM,1056263311,"50.4167, 4.4442",OK
20.5333,-97.45,Poza Rica de Hidalgo,MEXICO,1484808798,"20.5333, -97.4500",OK
24.8333,121,Zhubei,TAIWAN,1158417233,"24.8333, 121.0000",OK
34.4285,-119.7202,Santa Barbara,UNITED STATES,1840021829,"34.4285, -119.7202",OK
55.6814,37.8939,Lyubertsy,RUSSIA,1643024284,"55.6814, 37.8939",OK
50.3,19.1667,Sosnowiec,POLAND,1616057255,"50.3000, 19.1667",OK
-18.4784,-70.3211,Arica,CHILE,1152531089,"-18.4784, -70.3211",OK
36.8403,-2.4681,Almeria,SPAIN,1724745640,"36.8403, -2.4681",OK
-11.1083,-77.6083,Huacho,PERU,1604316784,"-11.1083, -77.6083",OK
47.53,21.6392,Debrecen,HUNGARY,1348460698,"47.5300, 21.6392",OK
-7.1644,-78.5106,Cajamarca,PERU,1604091119,"-7.1644, -78.5106",OK
40.8522,-73.3824,Huntington,UNITED STATES,1840058192,"40.8522, -73.3824",OK
51.3727,-0.1099,Croydon,UNITED KINGDOM,1826126675,"51.3727, -0.1099",OK
19.6656,-99.0917,San Pablo de las Salinas,MEXICO,1484379698,"19.6656, -99.0917",OK
40.3097,36.5542,Tokat,TURKEY,1792534905,"40.3097, 36.5542",OK
47.0417,-122.8959,Olympia,UNITED STATES,1840019865,"47.0417, -122.8959",OK
50.6397,5.5706,Liege,BELGIUM,1056513284,"50.6397, 5.5706",OK
65.0142,25.4719,Oulu,FINLAND,1246093273,"65.0142, 25.4719",OK
-34.7,-58.5833,Isidro Casanova,ARGENTINA,1032715964,"-34.7000, -58.5833",OK
40.9466,-73.8674,Yonkers,UNITED STATES,1840003478,"40.9466, -73.8674",OK
-22.4108,-47.5608,Rio Claro,BRAZIL,1076411428,"-22.4108, -47.5608",OK
41.5495,-72.0882,Norwich,UNITED STATES,1840004828,"41.5495, -72.0882",OK
5.03,118.34,Lahad Datu,MALAYSIA,1458472057,"5.0300, 118.3400",OK
7.8333,123.4333,Pagadian,PHILIPPINES,1608329397,"7.8333, 123.4333",OK
40.2833,-3.8,Fuenlabrada,SPAIN,1724000348,"40.2833, -3.8000",OK
40.4181,17.2408,Taranto,ITALY,1380707445,"40.4181, 17.2408",OK
45.5389,10.2203,Brescia,ITALY,1380432555,"45.5389, 10.2203",OK
42.465,-2.4456,Logrono,SPAIN,1724721513,"42.4650, -2.4456",OK
42.975,144.3747,Ashino,JAPAN,1392810778,"42.9750, 144.3747",OK
28.905,-81.2137,Deltona,UNITED STATES,1840015072,"28.9050, -81.2137",OK
17.55,-99.5,Chilpancingo,MEXICO,1484290575,"17.5500, -99.5000",OK
49.1667,-123.1333,Richmond,CANADA,1124121940,"49.1667, -123.1333",OK
32.0167,34.7667,Holon,ISRAEL,1376222772,"32.0167, 34.7667",OK
47.0722,21.9211,Oradea,ROMANIA,1642066626,"47.0722, 21.9211",OK
13.1333,123.7333,Legazpi City,PHILIPPINES,1608693683,"13.1333, 123.7333",OK
41.7637,-88.2901,Aurora,UNITED STATES,1840007034,"41.7637, -88.2901",OK
34.4167,132.7333,Higashi-Hiroshima,JAPAN,1392464732,"34.4167, 132.7333",OK
-9.9294,-76.2397,Huanuco,PERU,1604589102,"-9.9294, -76.2397",OK
35.6714,139.395,Hino,JAPAN,1392686410,"35.6714, 139.3950",OK
5.0247,-74.0014,Zipaquira,COLOMBIA,1170798590,"5.0247, -74.0014",OK
53.8833,86.7167,Prokopyevsk,RUSSIA,1643653477,"53.8833, 86.7167",OK
39.8417,33.5139,Kirikkale,TURKEY,1792859558,"39.8417, 33.5139",OK
44.8015,10.328,Parma,ITALY,1380655938,"44.8015, 10.3280",OK
34.8822,136.5842,Suzuka,JAPAN,1392913924,"34.8822, 136.5842",OK
37.2306,39.7653,Viransehir,TURKEY,1792566461,"37.2306, 39.7653",OK
32.4767,-114.7625,San Luis Rio Colorado,MEXICO,1484573106,"32.4767, -114.7625",OK
33.3881,-111.9318,Tempe,UNITED STATES,1840021942,"33.3881, -111.9318",OK
37.4504,138.86,Naka,JAPAN,1392479949,"37.4504, 138.8600",OK
40.3281,-3.7644,Leganes,SPAIN,1724900225,"40.3281, -3.7644",OK
-29.9027,-71.252,La Serena,CHILE,1152155065,"-29.9027, -71.2520",OK
38.887,-94.687,Overland Park,UNITED STATES,1840003834,"38.8870, -94.6870",OK
43.8808,11.0966,Prato,ITALY,1380751753,"43.8808, 11.0966",OK
19.0633,-98.3064,Cholula de Rivadabia,MEXICO,1484237822,"19.0633, -98.3064",OK
43.8667,-79.4333,Richmond Hill,CANADA,1124364273,"43.8667, -79.4333",OK
0.5411,123.0594,Gorontalo,INDONESIA,1360408580,"0.5411, 123.0594",OK
36.1472,139.3886,Kumagaya,JAPAN,1392500750,"36.1472, 139.3886",OK
37.1833,33.2167,Karaman,TURKEY,1792285496,"37.1833, 33.2167",OK
-34.9333,-57.95,La Plata,ARGENTINA,1032403831,"-34.9333, -57.9500",OK
43.45,-79.6833,Oakville,CANADA,1124080468,"43.4500, -79.6833",OK
36.1785,-115.049,Sunrise Manor,UNITED STATES,1840033833,"36.1785, -115.0490",OK
-32.9167,-68.8333,Godoy Cruz,ARGENTINA,1032263200,"-32.9167, -68.8333",OK
38.7333,41.4911,Mus,TURKEY,1792530937,"38.7333, 41.4911",OK
50.8725,20.6319,Kielce,POLAND,1616176351,"50.8725, 20.6319",OK
-9.7525,-36.6611,Arapiraca,BRAZIL,1076615737,"-9.7525, -36.6611",OK
-21.2089,-50.4328,Aracatuba,BRAZIL,1076630308,"-21.2089, -50.4328",OK
51.56,-1.78,Swindon,UNITED KINGDOM,1826498106,"51.5600, -1.7800",OK
-1.2969,-47.9219,Castanhal,BRAZIL,1076216938,"-1.2969, -47.9219",OK
51.5761,0.4886,Basildon,UNITED KINGDOM,1826481004,"51.5761, 0.4886",OK
-7.63,111.5231,Madiun,INDONESIA,1360921516,"-7.6300, 111.5231",OK
-7.6406,112.9065,Pasuruan,INDONESIA,1360084806,"-7.6406, 112.9065",OK
37.8481,27.8453,Aydin,TURKEY,1792696058,"37.8481, 27.8453",OK
45,41.1167,Armavir,RUSSIA,1643809754,"45.0000, 41.1167",OK
-22.2819,-42.5308,Nova Friburgo,BRAZIL,1076922983,"-22.2819, -42.5308",OK
43.32,-1.98,Donostia,SPAIN,1724910555,"43.3200, -1.9800",OK
52.039,47.7839,Balakovo,RUSSIA,1643480033,"52.0390, 47.7839",OK
34.9667,137.0833,Anjomachi,JAPAN,1392081830,"34.9667, 137.0833",OK
21.1382,105.505,Son Tay,VIETNAM,1704714941,"21.1382, 105.5050",OK
-23.5411,-46.3689,Ferraz de Vasconcelos,BRAZIL,1076173995,"-23.5411, -46.3689",OK
-22.7539,-47.4139,Santa Barbara d'Oeste,BRAZIL,1076199404,"-22.7539, -47.4139",OK
58.05,38.8333,Rybinsk,RUSSIA,1643113701,"58.0500, 38.8333",OK
51.3594,7.475,Hagen,GERMANY,1276389303,"51.3594, 7.4750",OK
-19.5833,-65.75,Potosi,BOLIVIA,1068933987,"-19.5833, -65.7500",OK
13.9125,100.4978,Pak Kret,THAILAND,1764165203,"13.9125, 100.4978",OK
41.5583,-73.0361,Waterbury,UNITED STATES,1840004851,"41.5583, -73.0361",OK
41.5421,2.4445,Mataro,SPAIN,1724901780,"41.5421, 2.4445",OK
35.6939,139.4194,Tachikawa,JAPAN,1392042507,"35.6939, 139.4194",OK
-3.4328,104.2356,Prabumulih,INDONESIA,1360148993,"-3.4328, 104.2356",OK
-23.0069,-44.3178,Angra dos Reis,BRAZIL,1076039737,"-23.0069, -44.3178",OK
60.4517,22.27,Turku,FINLAND,1246456609,"60.4517, 22.2700",OK
-20.2141,-70.1524,Iquique,CHILE,1152234625,"-20.2141, -70.1524",OK
41.9665,-91.6782,Cedar Rapids,UNITED STATES,1840000471,"41.9665, -91.6782",OK
35.6667,138.5667,Kofu,JAPAN,1392307565,"35.6667, 138.5667",OK
35.5011,134.235,Tottori,JAPAN,1392416969,"35.5011, 134.2350",OK
50.72,-1.88,Bournemouth,UNITED KINGDOM,1826769743,"50.7200, -1.8800",OK
37.15,138.2333,Joetsu,JAPAN,1392040772,"37.1500, 138.2333",OK
34.4836,135.4236,Izuo,JAPAN,1392291253,"34.4836, 135.4236",OK
49.2628,4.0347,Reims,FRANCE,1250608730,"49.2628, 4.0347",OK
44.6458,10.9257,Modena,ITALY,1380306270,"44.6458, 10.9257",OK
38.4109,-82.4344,Huntington,UNITED STATES,1840006211,"38.4109, -82.4344",OK
7.3,125.6833,Panabo,PHILIPPINES,1608577408,"7.3000, 125.6833",OK
51.5875,4.775,Breda,NETHERLANDS,1528921549,"51.5875, 4.7750",OK
47.5606,7.5906,Basel,SWITZERLAND,1756731313,"47.5606, 7.5906",OK
34.0393,-117.6064,Ontario,UNITED STATES,1840020410,"34.0393, -117.6064",OK
39.6401,-77.7217,Hagerstown,UNITED STATES,1840005613,"39.6401, -77.7217",OK
-20.0219,-44.0589,Ibirite,BRAZIL,1076368194,"-20.0219, -44.0589",OK
42.1168,-80.0733,Erie,UNITED STATES,1840000478,"42.1168, -80.0733",OK
-22.4119,-42.9658,Teresopolis,BRAZIL,1076000296,"-22.4119, -42.9658",OK
43.5845,-116.5631,Nampa,UNITED STATES,1840020041,"43.5845, -116.5631",OK
-7.3667,108.5333,Banjar,INDONESIA,1360289512,"-7.3667, 108.5333",OK
64.5667,39.85,Severodvinsk,RUSSIA,1643427671,"64.5667, 39.8500",OK
12.0667,124.6,Calbayog City,PHILIPPINES,1608088739,"12.0667, 124.6000",OK
63.44,10.4,Trondheim,NORWAY,1578633461,"63.4400, 10.4000",OK
43.3192,21.8961,Nis,SERBIA,1688661068,"43.3192, 21.8961",OK
-7.1908,-48.2069,Araguaina,BRAZIL,1076632868,"-7.1908, -48.2069",OK
35.6808,140.0267,Narashino,JAPAN,1392933042,"35.6808, 140.0267",OK
52.4,13.0667,Potsdam,GERMANY,1276395100,"52.4000, 13.0667",OK
50.8147,-0.3714,Worthing,UNITED KINGDOM,1826936965,"50.8147, -0.3714",OK
-3.7857,119.6522,Pinrang,INDONESIA,1360941841,"-3.7857, 119.6522",OK
-25.395,-51.4578,Guarapuava,BRAZIL,1076415327,"-25.3950, -51.4578",OK
34.9437,-81.9257,Spartanburg,UNITED STATES,1840015482,"34.9437, -81.9257",OK
45.2692,27.9575,Braila,ROMANIA,1642286806,"45.2692, 27.9575",OK
35.2494,-81.1853,Gastonia,UNITED STATES,1840013468,"35.2494, -81.1853",OK
38.75,-9.2333,Amadora,PORTUGAL,1620896557,"38.7500, -9.2333",OK
41.5333,-8.4167,Braga,PORTUGAL,1620949401,"41.5333, -8.4167",OK
26.1412,-80.1464,Fort Lauderdale,UNITED STATES,1840014236,"26.1412, -80.1464",OK
38.1144,15.65,Reggio di Calabria,ITALY,1380630212,"38.1144, 15.6500",OK
-34.7679,-58.2133,Berazategui,ARGENTINA,1032535314,"-34.7679, -58.2133",OK
49.2333,7,Saarbrucken,GERMANY,1276419711,"49.2333, 7.0000",OK
53.0167,158.65,Petropavlovsk-Kamchatskiy,RUSSIA,1643129247,"53.0167, 158.6500",OK
50.3011,18.6498,Gliwice,POLAND,1616311376,"50.3011, 18.6498",OK
8.0931,-76.7283,Turbo,COLOMBIA,1170426476,"8.0931, -76.7283",OK
-29.4131,-66.8558,La Rioja,ARGENTINA,1032864257,"-29.4131, -66.8558",OK
-3,120.2,Palopo,INDONESIA,1360740288,"-3.0000, 120.2000",OK
-13.1631,-74.2244,Ayacucho,PERU,1604300430,"-13.1631, -74.2244",OK
52.0594,1.1556,Ipswich,UNITED KINGDOM,1826629486,"52.0594, 1.1556",OK
41.6781,26.5594,Edirne,TURKEY,1792102607,"41.6781, 26.5594",OK
43.51,16.45,Split,CROATIA,1191440208,"43.5100, 16.4500",OK
-14.7889,-39.0489,Ilheus,BRAZIL,1076021121,"-14.7889, -39.0489",OK
41.4409,-82.184,Lorain,UNITED STATES,1840000644,"41.4409, -82.1840",OK
-22.5439,-44.1708,Barra Mansa,BRAZIL,1076686083,"-22.5439, -44.1708",OK
-26.8667,26.6667,Klerksdorp,SOUTH AFRICA,1710416691,"-26.8667, 26.6667",OK
35.9907,-79.9938,High Point,UNITED STATES,1840014479,"35.9907, -79.9938",OK
5.3306,-72.3906,Yopal,COLOMBIA,1170295059,"5.3306, -72.3906",OK
-7.3095,110.4901,Salatiga,INDONESIA,1360271289,"-7.3095, 110.4901",OK
37.1051,-76.5185,Newport News,UNITED STATES,1840003862,"37.1051, -76.5185",OK
38.1619,27.3583,Torbali,TURKEY,1792319298,"38.1619, 27.3583",OK
24.9575,121.2989,Bade,TAIWAN,1158126203,"24.9575, 121.2989",OK
43.4628,-3.805,Santander,SPAIN,1724247413,"43.4628, -3.8050",OK
41.2077,-8.6674,Matosinhos,PORTUGAL,1620049442,"41.2077, -8.6674",OK
19.4167,-98.9,Chicoloapan,MEXICO,1484980825,"19.4167, -98.9000",OK
-10.855,-37.1258,Nossa Senhora do Socorro,BRAZIL,1076881156,"-10.8550, -37.1258",OK
33.7341,-116.9969,Hemet,UNITED STATES,1840020550,"33.7341, -116.9969",OK
24.9167,121.15,Yangmei,TAIWAN,1158247880,"24.9167, 121.1500",OK
21.9833,-99.0167,Ciudad Valles,MEXICO,1484904610,"21.9833, -99.0167",OK
40.35,-3.8333,Alcorcon,SPAIN,1724318578,"40.3500, -3.8333",OK
37.943,23.6469,Piraeus,GREECE,1300458367,"37.9430, 23.6469",OK
54.9061,-1.3811,Sunderland,UNITED KINGDOM,1826736387,"54.9061, -1.3811",OK
-19.3987,-40.0651,Linhares,BRAZIL,1076355611,"-19.3987, -40.0651",OK
50.3,18.7833,Zabrze,POLAND,1616784915,"50.3000, 18.7833",OK
38.6803,-9.1583,Almada,PORTUGAL,1620388276,"38.6803, -9.1583",OK
51.5588,0.0855,Ilford,UNITED KINGDOM,1826381000,"51.5588, 0.0855",OK
18.8167,-98.95,Cuautla,MEXICO,1484359683,"18.8167, -98.9500",OK
-17.7978,-50.9278,Rio Verde,BRAZIL,1076844683,"-17.7978, -50.9278",OK
36.9789,-122.0346,Santa Cruz,UNITED STATES,1840021579,"36.9789, -122.0346",OK
43.1258,5.9306,Toulon,FRANCE,1250541629,"43.1258, 5.9306",OK
18.6333,-91.8333,Ciudad del Carmen,MEXICO,1484192447,"18.6333, -91.8333",OK
41.4016,-73.471,Danbury,UNITED STATES,1840004837,"41.4016, -73.4710",OK
39.9831,-0.0331,Castellon de la Plana,SPAIN,1724579885,"39.9831, -0.0331",OK
38.697,-9.3017,Oeiras,PORTUGAL,1620375757,"38.6970, -9.3017",OK
16.0333,120.3333,Dagupan City,PHILIPPINES,1608530964,"16.0333, 120.3333",OK
54.5767,-1.2355,Middlesbrough,UNITED KINGDOM,1826407067,"54.5767, -1.2355",OK
6.5,124.85,Koronadal,PHILIPPINES,1608000651,"6.5000, 124.8500",OK
53.78,20.4942,Olsztyn,POLAND,1616383275,"53.7800, 20.4942",OK
40.3047,-3.7311,Getafe,SPAIN,1724750196,"40.3047, -3.7311",OK
3.3283,99.1625,Tebingtinggi,INDONESIA,1360386781,"3.3283, 99.1625",OK
16.2511,-92.1342,Comitan,MEXICO,1484955658,"16.2511, -92.1342",OK
14.0833,121.15,Tanauan,PHILIPPINES,1608053818,"14.0833, 121.1500",OK
38.416,-121.3842,Elk Grove,UNITED STATES,1840020245,"38.4160, -121.3842",OK
53.1667,48.4667,Syzran,RUSSIA,1643711617,"53.1667, 48.4667",OK
45.4347,4.3903,Saint-Etienne,FRANCE,1250000540,"45.4347, 4.3903",OK
-16.2528,-47.95,Luziania,BRAZIL,1076073549,"-16.2528, -47.9500",OK
21.3564,-101.9292,Lagos de Moreno,MEXICO,1484759605,"21.3564, -101.9292",OK
38.9956,-1.8558,Albacete,SPAIN,1724000069,"38.9956, -1.8558",OK
49.8225,19.0444,Bielsko-Biala,POLAND,1616302636,"49.8225, 19.0444",OK
42.9304,143.17,Beppucho,JAPAN,1392712158,"42.9304, 143.1700",OK
50.347,18.923,Bytom,POLAND,1616740907,"50.3470, 18.9230",OK
20.9514,107.0852,Ha Long,VIETNAM,1704379547,"20.9514, 107.0852",OK
36.6,140.65,Hitachi,JAPAN,1392145167,"36.6000, 140.6500",OK
38.1133,-122.2358,Vallejo,UNITED STATES,1840021499,"38.1133, -122.2358",OK
-8.195,114.3696,Banyuwangi,INDONESIA,1360008480,"-8.1950, 114.3696",OK
51.4275,6.8825,Mulheim,GERMANY,1276676856,"51.4275, 6.8825",OK
-7.8508,-35.2547,Carpina,BRAZIL,1076005200,"-7.8508, -35.2547",OK
44.7,10.6333,Reggio Emilia,ITALY,1380487033,"44.7000, 10.6333",OK
44.3711,-79.6769,Barrie,CANADA,1124340223,"44.3711, -79.6769",OK
55.8167,37.3333,Krasnogorsk,RUSSIA,1643674336,"55.8167, 37.3333",OK
35.3681,132.755,Izumo,JAPAN,1392299364,"35.3681, 132.7550",OK
42.35,-3.6822,Burgos,SPAIN,1724993285,"42.3500, -3.6822",OK
35.7933,139.5653,Niiza,JAPAN,1392772700,"35.7933, 139.5653",OK
21.0178,-101.2567,Guanajuato,MEXICO,1484185068,"21.0178, -101.2567",OK
-23.2817,-46.7425,Francisco Morato,BRAZIL,1076808330,"-23.2817, -46.7425",OK
33.7787,-117.9601,Garden Grove,UNITED STATES,1840020577,"33.7787, -117.9601",OK
47.5167,42.15,Volgodonsk,RUSSIA,1643784914,"47.5167, 42.1500",OK
10.5388,122.8384,Bago,PHILIPPINES,1608943172,"10.5388, 122.8384",OK
10.3833,123.65,Toledo,PHILIPPINES,1608665464,"10.3833, 123.6500",OK
36.0164,-115.2208,Enterprise,UNITED STATES,1840033827,"36.0164, -115.2208",OK
28.405,-106.8667,Cuauhtemoc,MEXICO,1484365643,"28.4050, -106.8667",OK
42.3372,-122.8537,Medford,UNITED STATES,1840020076,"42.3372, -122.8537",OK
-3.9906,-79.205,Loja,ECUADOR,1218739896,"-3.9906, -79.2050",OK
43.8,131.95,Ussuriysk,RUSSIA,1643001263,"43.8000, 131.9500",OK
-5.0939,-42.8369,Timon,BRAZIL,1076758286,"-5.0939, -42.8369",OK
35.782,-78.8191,Cary,UNITED STATES,1840016196,"35.7820, -78.8191",OK
2.0336,103.3194,Kluang,MALAYSIA,1458692921,"2.0336, 103.3194",OK
47.4222,40.0939,Novocherkassk,RUSSIA,1643990727,"47.4222, 40.0939",OK
34.8667,137.0667,Nishio,JAPAN,1392425838,"34.8667, 137.0667",OK
48.0809,-122.1561,Marysville,UNITED STATES,1840019789,"48.0809, -122.1561",OK
6.75,125.35,Digos,PHILIPPINES,1608635653,"6.7500, 125.3500",OK
-33.2994,-66.3392,San Luis,ARGENTINA,1032547434,"-33.2994, -66.3392",OK
-41.4718,-72.9396,Puerto Montt,CHILE,1152443957,"-41.4718, -72.9396",OK
33.8616,-117.5649,Corona,UNITED STATES,1840019305,"33.8616, -117.5649",OK
53.1439,8.2139,Oldenburg,GERMANY,1276946953,"53.1439, 8.2139",OK
59.8498,17.6389,Uppsala,SWEDEN,1752953686,"59.8498, 17.6389",OK
41.15,-8.5333,Gondomar,PORTUGAL,1620506259,"41.1500, -8.5333",OK
24.9004,89.95,Jamalpur,BANGLADESH,1050233680,"24.9004, 89.9500",OK
-21.7878,-46.5608,Pocos de Caldas,BRAZIL,1076336113,"-21.7878, -46.5608",OK
38.2992,-77.4872,Fredericksburg,UNITED STATES,1840003845,"38.2992, -77.4872",OK
-3.6861,-40.3497,Sobral,BRAZIL,1076577102,"-3.6861, -40.3497",OK
11.5833,122.75,Roxas City,PHILIPPINES,1608344583,"11.5833, 122.7500",OK
-1.2417,-78.6197,Ambato,ECUADOR,1218046148,"-1.2417, -78.6197",OK
12.9667,124,Sorsogon,PHILIPPINES,1608265953,"12.9667, 124.0000",OK
-23.7172,-46.8494,Itapecerica da Serra,BRAZIL,1076163359,"-23.7172, -46.8494",OK
-23.6228,-46.5508,Sao Caetano do Sul,BRAZIL,1076527920,"-23.6228, -46.5508",OK
-25.6667,27.2336,Rustenburg,SOUTH AFRICA,1710326039,"-25.6667, 27.2336",OK
38.25,21.7333,Patra,GREECE,1300201099,"38.2500, 21.7333",OK
11.5442,-72.9069,Riohacha,COLOMBIA,1170903069,"11.5442, -72.9069",OK
34.2903,-83.8301,Gainesville,UNITED STATES,1840013612,"34.2903, -83.8301",OK
-23.2642,-47.2992,Itu,BRAZIL,1076622789,"-23.2642, -47.2992",OK
34.7178,137.8514,Iwata,JAPAN,1392088261,"34.7178, 137.8514",OK
36.7541,137.0257,Takaoka,JAPAN,1392754231,"36.7541, 137.0257",OK
23.9167,120.6833,Nantou,TAIWAN,1158112865,"23.9167, 120.6833",OK
52.2789,8.0431,Osnabruck,GERMANY,1276554949,"52.2789, 8.0431",OK
40.7706,29.7661,Korfez,TURKEY,1792917174,"40.7706, 29.7661",OK
43.1121,12.3888,Perugia,ITALY,1380939013,"43.1121, 12.3888",OK
43.9,-78.85,Oshawa,CANADA,1124541904,"43.9000, -78.8500",OK
55.7075,21.1428,Klaipeda,LITHUANIA,1440897790,"55.7075, 21.1428",OK
53.3917,-2.5972,Warrington,UNITED KINGDOM,1826261547,"53.3917, -2.5972",OK
-4.8589,-43.3558,Caxias,BRAZIL,1076325693,"-4.8589, -43.3558",OK
53.645,-1.7798,Huddersfield,UNITED KINGDOM,1826672445,"53.6450, -1.7798",OK
51.51,-0.59,Slough,UNITED KINGDOM,1826807636,"51.5100, -0.5900",OK
-32.8494,27.4381,Bhisho,SOUTH AFRICA,1710672530,"-32.8494, 27.4381",OK
-36.6067,-72.1033,Chillan,CHILE,1152082093,"-36.6067, -72.1033",OK
55.4004,10.3833,Odense,DENMARK,1208194249,"55.4004, 10.3833",OK
32.07,34.8235,Ramat Gan,ISRAEL,1376357911,"32.0700, 34.8235",OK
-27.6167,152.7667,Ipswich,AUSTRALIA,1036244388,"-27.6167, 152.7667",OK
43.8445,25.9539,Ruse,BULGARIA,1100854249,"43.8445, 25.9539",OK
52.3803,4.6406,Haarlem,NETHERLANDS,1528822178,"52.3803, 4.6406",OK
28.7,-100.5231,Piedras Negras,MEXICO,1484000400,"28.7000, -100.5231",OK
-23.5917,-48.0531,Itapetininga,BRAZIL,1076425970,"-23.5917, -48.0531",OK
38.5,27.7,Turgutlu,TURKEY,1792010631,"38.5000, 27.7000",OK
33.9517,131.2467,Ube,JAPAN,1392198814,"33.9517, 131.2467",OK
42.9848,-71.4447,Manchester,UNITED STATES,1840002983,"42.9848, -71.4447",OK
-4.9039,-80.6853,Sullana,PERU,1604666111,"-4.9039, -80.6853",OK
44.85,20.4,Zemun,SERBIA,1688453076,"44.8500, 20.4000",OK
19.2833,-98.4333,San Martin Texmelucan de Labastida,MEXICO,1484481265,"19.2833, -98.4333",OK
40.6337,-3.1674,Guadalajara,SPAIN,1724317859,"40.6337, -3.1674",OK
-26.1883,28.3206,Benoni,SOUTH AFRICA,1710880986,"-26.1883, 28.3206",OK
14.9333,120.6,Lubao,PHILIPPINES,1608215915,"14.9333, 120.6000",OK
49.4122,8.71,Heidelberg,GERMANY,1276519742,"49.4122, 8.7100",OK
38.4811,28.1392,Salihli,TURKEY,1792382417,"38.4811, 28.1392",OK
52.21,5.97,Apeldoorn,NETHERLANDS,1528057552,"52.2100, 5.9700",OK
55.8,38.45,Elektrostal,RUSSIA,1643790299,"55.8000, 38.4500",OK
-13.8578,-40.0839,Jequie,BRAZIL,1076558785,"-13.8578, -40.0839",OK
0.1333,117.5,Bontang,INDONESIA,1360692406,"0.1333, 117.5000",OK
46.25,20.1667,Szeged,HUNGARY,1348655615,"46.2500, 20.1667",OK
45.4,-71.9,Sherbrooke,CANADA,1124559506,"45.4000, -71.9000",OK
-34.5333,-58.7167,San Miguel,ARGENTINA,1032038706,"-34.5333, -58.7167",OK
18.3793,-66.1635,Bayamon,PUERTO RICO,1630035622,"18.3793, -66.1635",OK
-22.9189,-46.5425,Braganca Paulista,BRAZIL,1076245528,"-22.9189, -46.5425",OK
-22.9239,-45.4617,Pindamonhangaba,BRAZIL,1076937468,"-22.9239, -45.4617",OK
47.3167,5.0167,Dijon,FRANCE,1250505606,"47.3167, 5.0167",OK
7.0731,-73.1681,Giron,COLOMBIA,1170575968,"7.0731, -73.1681",OK
28.4853,-16.3167,La Laguna,SPAIN,1724625025,"28.4853, -16.3167",OK
46.1667,21.3167,Arad,ROMANIA,1642996909,"46.1667, 21.3167",OK
-33.3333,-60.2167,San Nicolas de los Arroyos,ARGENTINA,1032067887,"-33.3333, -60.2167",OK
-12.0139,-76.825,Huaycan,PERU,1604578883,"-12.0139, -76.8250",OK
48.7208,37.5556,Kramatorsk,UKRAINE,1804461469,"48.7208, 37.5556",OK
43.55,10.3167,Livorno,ITALY,1380159305,"43.5500, 10.3167",OK
38.6833,35.5667,Talas,TURKEY,1792443013,"38.6833, 35.5667",OK
14.2833,120.8667,Trece Martires City,PHILIPPINES,1608990723,"14.2833, 120.8667",OK
7.0167,100.4667,Hat Yai,THAILAND,1764161022,"7.0167, 100.4667",OK
-28.4686,-65.7792,Catamarca,ARGENTINA,1032260908,"-28.4686, -65.7792",OK
40.1144,-88.2735,Champaign,UNITED STATES,1840007239,"40.1144, -88.2735",OK
38.8185,-77.0861,Alexandria,UNITED STATES,1840003837,"38.8185, -77.0861",OK
-33.9667,22.45,George,SOUTH AFRICA,1710164136,"-33.9667, 22.4500",OK
44.4178,12.1994,Ravenna,ITALY,1380964180,"44.4178, 12.1994",OK
35.7547,139.4686,Higashimurayama,JAPAN,1392034645,"35.7547, 139.4686",OK
37.6328,-122.0772,Hayward,UNITED STATES,1840020293,"37.6328, -122.0772",OK
-1.7178,-48.8828,Abaetetuba,BRAZIL,1076974632,"-1.7178, -48.8828",OK
35.3594,136.6128,Ogaki,JAPAN,1392727505,"35.3594, 136.6128",OK
42.4257,25.6346,Stara Zagora,BULGARIA,1100903924,"42.4257, 25.6346",OK
41.445,-8.2908,Guimaraes,PORTUGAL,1620771539,"41.4450, -8.2908",OK
34.5781,136.5275,Matsuzaka,JAPAN,1392893621,"34.5781, 136.5275",OK
39.771,-89.6538,Springfield,UNITED STATES,1840009517,"39.7710, -89.6538",OK
16.7367,-92.6383,San Cristobal,MEXICO,1484451215,"16.7367, -92.6383",OK
-34.7167,-58.6167,Rafael Castillo,ARGENTINA,1032812310,"-34.7167, -58.6167",OK
-33.123,-64.3478,Rio Cuarto,ARGENTINA,1032552145,"-33.1230, -64.3478",OK
45.7667,4.8803,Villeurbanne,FRANCE,1250002615,"45.7667, 4.8803",OK
-17.535,-39.7419,Teixeira de Freitas,BRAZIL,1076918835,"-17.5350, -39.7419",OK
51.7519,-1.2578,Oxford,UNITED KINGDOM,1826689568,"51.7519, -1.2578",OK
-8.0219,-34.9808,Camarajibe,BRAZIL,1076738662,"-8.0219, -34.9808",OK
36.6206,29.1142,Fethiye,TURKEY,1792001223,"36.6206, 29.1142",OK
