city,city_ascii,lat,lng,COUNTRY,iso2,iso3,admin_name,capital,population,id
Tokyo,Tokyo,35.6897,139.6922,JAPAN,JP,JPN,Tōkyō,primary,37977000,1392685764
Jakarta,Jakarta,-6.2146,106.8451,INDONESIA,ID,IDN,Jakarta,primary,34540000,1360771077
Delhi,Delhi,28.6600,77.2300,INDIA,IN,IND,Delhi,admin,29617000,1356872604
Mumbai,Mumbai,18.9667,72.8333,INDIA,IN,IND,Mahārāshtra,admin,23355000,1356226629
Manila,Manila,14.6000,120.9833,PHILIPPINES,PH,PHL,Manila,primary,23088000,1608618140
Shanghai,Shanghai,31.1667,121.4667,CHINA,CN,CHN,Shanghai,admin,22120000,1156073548
São Paulo,Sao Paulo,-23.5504,-46.6339,BRAZIL,BR,BRA,São Paulo,admin,22046000,1076532519
Mexico City,Mexico City,19.4333,-99.1333,MEXICO,MX,MEX,Ciudad de México,primary,20996000,1484247881
Guangzhou,Guangzhou,23.1288,113.2590,CHINA,CN,CHN,Guangdong,admin,20902000,1156237133
Beijing,Beijing,39.9050,116.3914,CHINA,CN,CHN,Beijing,primary,19433000,1156228865
New York,New York,40.6943,-73.9249,UNITED STATES,US,USA,New York,,18713220,1840034016
Kolkāta,Kolkata,22.5411,88.3378,INDIA,IN,IND,West Bengal,admin,17560000,1356060520
Moscow,Moscow,55.7558,37.6178,RUSSIA,RU,RUS,Moskva,primary,17125000,1643318494
Bangkok,Bangkok,13.7500,100.5167,THAILAND,TH,THA,Krung Thep Maha Nakhon,primary,17066000,1764068610
Buenos Aires,Buenos Aires,-34.5997,-58.3819,ARGENTINA,AR,ARG,"Buenos Aires, Ciudad Autónoma de",primary,16157000,1032717330
Dhaka,Dhaka,23.7289,90.3944,BANGLADESH,BD,BGD,Dhaka,primary,15443000,1050529279
Lagos,Lagos,6.4500,3.4000,NIGERIA,NG,NGA,Lagos,minor,15279000,1566593751
Istanbul,Istanbul,41.0100,28.9603,TURKEY,TR,TUR,İstanbul,admin,15154000,1792756324
Ōsaka,Osaka,34.7500,135.4601,JAPAN,JP,JPN,Ōsaka,admin,14977000,1392419823
Bangalore,Bangalore,12.9699,77.5980,INDIA,IN,IND,Karnātaka,admin,13707000,1356410365
Ho Chi Minh City,Ho Chi Minh City,10.8167,106.6333,VIETNAM,VN,VNM,Hồ Chí Minh,admin,13312000,1704774326
Los Angeles,Los Angeles,34.1139,-118.4068,UNITED STATES,US,USA,California,,12750807,1840020491
Rio de Janeiro,Rio de Janeiro,-22.9083,-43.1964,BRAZIL,BR,BRA,Rio de Janeiro,admin,12272000,1076887657
Chennai,Chennai,13.0825,80.2750,INDIA,IN,IND,Tamil Nādu,admin,11324000,1356374944
Chengdu,Chengdu,30.6600,104.0633,CHINA,CN,CHN,Sichuan,admin,11309000,1156421555
Paris,Paris,48.8566,2.3522,FRANCE,FR,FRA,Île-de-France,primary,11020000,1250015082
London,London,51.5072,-0.1275,UNITED KINGDOM,GB,GBR,"London, City of",primary,10979000,1826645935
Lima,Lima,-12.0500,-77.0333,PERU,PE,PER,Lima,primary,9848000,1604728603
Hyderābād,Hyderabad,17.3667,78.4667,INDIA,IN,IND,Telangana,admin,9746000,1356871768
Bogotá,Bogota,4.6126,-74.0705,COLOMBIA,CO,COL,Bogotá,primary,9464000,1170483426
Nagoya,Nagoya,35.1167,136.9333,JAPAN,JP,JPN,Aichi,admin,9113000,1392407472
Chicago,Chicago,41.8373,-87.6862,UNITED STATES,US,USA,Illinois,,8604203,1840000494
Kuala Lumpur,Kuala Lumpur,3.1478,101.6953,MALAYSIA,MY,MYS,Kuala Lumpur,primary,8285000,1458988644
Hanoi,Hanoi,21.0245,105.8412,VIETNAM,VN,VNM,Hà Nội,primary,7785000,1704413791
Ahmedabad,Ahmedabad,23.0300,72.5800,INDIA,IN,IND,Gujarāt,minor,7410000,1356304381
Hong Kong,Hong Kong,22.3050,114.1850,HONG KONG,HK,HKG,,primary,7347000,1344982653
Santiago,Santiago,-33.4500,-70.6667,CHILE,CL,CHL,Región Metropolitana,primary,7007000,1152554349
Hangzhou,Hangzhou,30.2500,120.1675,CHINA,CN,CHN,Zhejiang,admin,6446000,1156275243
Miami,Miami,25.7839,-80.2102,UNITED STATES,US,USA,Florida,,6445545,1840015149
Madrid,Madrid,40.4167,-3.7167,SPAIN,ES,ESP,Madrid,primary,6026000,1724616994
Singapore,Singapore,1.3000,103.8000,SINGAPORE,SG,SGP,Central Singapore,primary,5745000,1702341327
Dallas,Dallas,32.7936,-96.7662,UNITED STATES,US,USA,Texas,,5743938,1840019440
Philadelphia,Philadelphia,40.0077,-75.1339,UNITED STATES,US,USA,Pennsylvania,,5649300,1840000673
Nairobi,Nairobi,-1.2864,36.8172,KENYA,KE,KEN,Nairobi City,primary,5545000,1404000661
Ankara,Ankara,39.9300,32.8500,TURKEY,TR,TUR,Ankara,primary,5503985,1792572891
Houston,Houston,29.7863,-95.3889,UNITED STATES,US,USA,Texas,,5464251,1840020925
Atlanta,Atlanta,33.7627,-84.4224,UNITED STATES,US,USA,Georgia,admin,5449398,1840013660
Toronto,Toronto,43.7417,-79.3733,CANADA,CA,CAN,Ontario,,5429524,1124279679
Washington,Washington,38.9047,-77.0163,UNITED STATES,US,USA,District of Columbia,primary,5379184,1840006060
Saint Petersburg,Saint Petersburg,59.9500,30.3167,RUSSIA,RU,RUS,Sankt-Peterburg,admin,5351935,1643616350
Sydney,Sydney,-33.8650,151.2094,AUSTRALIA,AU,AUS,New South Wales,admin,5312163,1036074917
Guadalajara,Guadalajara,20.6767,-103.3475,MEXICO,MX,MEX,Jalisco,admin,5253000,1484950208
Belo Horizonte,Belo Horizonte,-19.9281,-43.9419,BRAZIL,BR,BRA,Minas Gerais,admin,5159000,1076967355
Melbourne,Melbourne,-37.8136,144.9631,AUSTRALIA,AU,AUS,Victoria,admin,5078193,1036533631
Surabaya,Surabaya,-7.2458,112.7378,INDONESIA,ID,IDN,Jawa Timur,admin,4975000,1360484663
Guilin,Guilin,25.2667,110.2833,CHINA,CN,CHN,Guangxi,minor,4747963,1156235364
Boston,Boston,42.3188,-71.0846,UNITED STATES,US,USA,Massachusetts,admin,4688346,1840000455
Barcelona,Barcelona,41.3825,2.1769,SPAIN,ES,ESP,Catalonia,admin,4588000,1724594040
Johannesburg,Johannesburg,-26.2044,28.0416,SOUTH AFRICA,ZA,ZAF,Gauteng,admin,4434827,1710550792
İzmir,Izmir,38.4127,27.1384,TURKEY,TR,TUR,İzmir,admin,4320519,1792725579
Monterrey,Monterrey,25.6667,-100.3000,MEXICO,MX,MEX,Nuevo León,admin,4295000,1484559591
Phoenix,Phoenix,33.5722,-112.0891,UNITED STATES,US,USA,Arizona,admin,4219697,1840020568
Amman,Amman,31.9500,35.9333,JORDAN,JO,JOR,Al ‘Āşimah,primary,4007526,1400522593
Seattle,Seattle,47.6211,-122.3244,UNITED STATES,US,USA,Washington,,3789215,1840021117
Yokohama,Yokohama,35.4333,139.6333,JAPAN,JP,JPN,Kanagawa,admin,3757630,1392118339
Berlin,Berlin,52.5167,13.3833,GERMANY,DE,DEU,Berlin,primary,3644826,1276451290
San Francisco,San Francisco,37.7562,-122.4430,UNITED STATES,US,USA,California,,3592294,1840021543
Montréal,Montreal,45.5089,-73.5617,CANADA,CA,CAN,Quebec,,3519595,1124586170
Detroit,Detroit,42.3834,-83.1024,UNITED STATES,US,USA,Michigan,,3506126,1840003971
Lucknow,Lucknow,26.8470,80.9470,INDIA,IN,IND,Uttar Pradesh,admin,3382000,1356891790
San Diego,San Diego,32.8312,-117.1225,UNITED STATES,US,USA,California,,3220118,1840021990
Santa Cruz,Santa Cruz,-17.7892,-63.1975,BOLIVIA,BO,BOL,Santa Cruz,admin,3151676,1068129363
Jaipur,Jaipur,26.9167,75.8667,INDIA,IN,IND,Rājasthān,admin,3073350,1356293537
Brasília,Brasilia,-15.7939,-47.8828,BRAZIL,BR,BRA,Distrito Federal,primary,3015268,1076144436
Minneapolis,Minneapolis,44.9635,-93.2678,UNITED STATES,US,USA,Minnesota,,2977172,1840007830
Kyiv,Kyiv,50.4500,30.5236,UKRAINE,UA,UKR,"Kyyiv, Misto",primary,2963199,1804382913
Quezon City,Quezon City,14.6333,121.0333,PHILIPPINES,PH,PHL,Quezon,admin,2936116,1608974097
Bursa,Bursa,40.1833,29.0667,TURKEY,TR,TUR,Bursa,admin,2901396,1792903330
Tampa,Tampa,27.9942,-82.4451,UNITED STATES,US,USA,Florida,,2908063,1840015982
Birmingham,Birmingham,52.4800,-1.9025,UNITED KINGDOM,GB,GBR,Birmingham,,2897303,1826423213
Salvador,Salvador,-12.9708,-38.5108,BRAZIL,BR,BRA,Bahia,admin,2886698,1076923789
Denver,Denver,39.7621,-104.8759,UNITED STATES,US,USA,Colorado,admin,2876625,1840018789
Rome,Rome,41.8931,12.4828,ITALY,IT,ITA,Lazio,primary,2872800,1380382862
La Paz,La Paz,-16.4942,-68.1475,BOLIVIA,BO,BOL,La Paz,primary,2867504,1068000064
Kano,Kano,12.0000,8.5167,NIGERIA,NG,NGA,Kano,admin,2828861,1566422868
Taichung,Taichung,24.1500,120.6667,TAIWAN,TW,TWN,Taichung,admin,2803894,1158689622
Kaohsiung,Kaohsiung,22.6167,120.3000,TAIWAN,TW,TWN,Kaohsiung,admin,2773533,1158331334
Guayaquil,Guayaquil,-2.1833,-79.8833,ECUADOR,EC,ECU,Guayas,admin,2723665,1218802178
Manchester,Manchester,53.4794,-2.2453,UNITED KINGDOM,GB,GBR,Manchester,,2705000,1826246335
Taipei,Taipei,25.0478,121.5319,TAIWAN,TW,TWN,Taipei,primary,2684567,1158881289
Ibadan,Ibadan,7.3964,3.9167,NIGERIA,NG,NGA,Oyo,admin,2628000,1566366407
Chattogram,Chattogram,22.3350,91.8325,BANGLADESH,BD,BGD,Chittagong,admin,2581643,1050830722
Santo Domingo,Santo Domingo,18.4764,-69.8933,DOMINICAN REPUBLIC,DO,DOM,Ozama,primary,2581827,1214636202
Brooklyn,Brooklyn,40.6501,-73.9496,UNITED STATES,US,USA,New York,,2559903,1840034030
Medellín,Medellin,6.2447,-75.5748,COLOMBIA,CO,COL,Antioquia,admin,2529403,1170680389
Brisbane,Brisbane,-27.4678,153.0281,AUSTRALIA,AU,AUS,Queensland,admin,2514184,1036192929
Dubai,Dubai,25.2697,55.3094,UNITED ARAB EMIRATES,AE,ARE,Dubayy,admin,2502715,1784736618
Cali,Cali,3.4400,-76.5197,COLOMBIA,CO,COL,Valle del Cauca,admin,2471474,1170417589
Fortaleza,Fortaleza,-3.7275,-38.5275,BRAZIL,BR,BRA,Ceará,admin,2452185,1076567885
Antalya,Antalya,36.9081,30.6956,TURKEY,TR,TUR,Antalya,admin,2426356,1792988434
Bandung,Bandung,-6.9500,107.5667,INDONESIA,ID,IDN,Jawa Barat,admin,2394873,1360313023
Bekasi,Bekasi,-6.2333,107.0000,INDONESIA,ID,IDN,Jawa Barat,,2381053,1360006015
Tijuana,Tijuana,32.5250,-117.0333,MEXICO,MX,MEX,Baja California,minor,2384609,1484708778
Accra,Accra,5.6037,-0.1870,GHANA,GH,GHA,Greater Accra,primary,2291352,1288299415
Vancouver,Vancouver,49.2500,-123.1000,CANADA,CA,CAN,British Columbia,,2264823,1124825478
Tangerang,Tangerang,-6.1783,106.6319,INDONESIA,ID,IDN,Jawa Barat,,2237006,1360002844
Konya,Konya,37.8714,32.4847,TURKEY,TR,TUR,Konya,admin,2232374,1792014004
Queens,Queens,40.7498,-73.7976,UNITED STATES,US,USA,New York,,2230722,1840034002
Adana,Adana,37.0000,35.3250,TURKEY,TR,TUR,Adana,admin,2220125,1792783772
Medan,Medan,3.6667,98.6667,INDONESIA,ID,IDN,Sumatera Utara,admin,2210625,1360543171
Phnom Penh,Phnom Penh,11.5696,104.9210,CAMBODIA,KH,KHM,Phnom Penh,primary,2129371,1116260534
Fukuoka,Fukuoka,33.6000,130.4167,JAPAN,JP,JPN,Fukuoka,admin,2128000,1392576294
Riverside,Riverside,33.9381,-117.3948,UNITED STATES,US,USA,California,,2107852,1840020551
Baltimore,Baltimore,39.3051,-76.6144,UNITED STATES,US,USA,Maryland,,2106068,1840001592
Haiphong,Haiphong,20.8000,106.6667,VIETNAM,VN,VNM,Hải Phòng,admin,2103500,1704000623
Las Vegas,Las Vegas,36.2333,-115.2654,UNITED STATES,US,USA,Nevada,,2104198,1840020364
Kumasi,Kumasi,6.6833,-1.6167,GHANA,GH,GHA,Ashanti,admin,2069350,1288181103
Portland,Portland,45.5372,-122.6500,UNITED STATES,US,USA,Oregon,,2074775,1840019941
Perth,Perth,-31.9522,115.8589,AUSTRALIA,AU,AUS,Western Australia,admin,2059484,1036178956
San Antonio,San Antonio,29.4658,-98.5253,UNITED STATES,US,USA,Texas,,2049293,1840022220
Gaziantep,Gaziantep,37.0667,37.3833,TURKEY,TR,TUR,Gaziantep,admin,2028563,1792911843
St. Louis,St. Louis,38.6358,-90.2451,UNITED STATES,US,USA,Missouri,,2024074,1840001651
Quito,Quito,-0.2186,-78.5097,ECUADOR,EC,ECU,Pichincha,primary,2011388,1218441993
Minsk,Minsk,53.9022,27.5618,BELARUS,BY,BLR,Minsk,primary,2009786,1112348503
Şanlıurfa,Sanliurfa,37.1583,38.7917,TURKEY,TR,TUR,Şanlıurfa,admin,1985753,1792937570
Sapporo,Sapporo,43.0621,141.3544,JAPAN,JP,JPN,Hokkaidō,admin,1961690,1392000195
Vienna,Vienna,48.2083,16.3731,AUSTRIA,AT,AUT,Wien,primary,1911191,1040261752
Leeds,Leeds,53.7997,-1.5492,UNITED KINGDOM,GB,GBR,Leeds,,1901934,1826343963
Sacramento,Sacramento,38.5667,-121.4683,UNITED STATES,US,USA,California,admin,1898019,1840021491
Tainan,Tainan,22.9833,120.1833,TAIWAN,TW,TWN,Tainan,admin,1883831,1158061376
Bucharest,Bucharest,44.4000,26.0833,ROMANIA,RO,ROU,Bucureşti,primary,1883425,1642414442
Bhopāl,Bhopal,23.2500,77.4167,INDIA,IN,IND,Madhya Pradesh,admin,1883381,1356734039
Curitiba,Curitiba,-25.4297,-49.2719,BRAZIL,BR,BRA,Paraná,admin,1879355,1076701712
Hamburg,Hamburg,53.5500,10.0000,GERMANY,DE,DEU,Hamburg,admin,1841179,1276041799
Meru,Meru,0.0500,37.6500,KENYA,KE,KEN,Meru,admin,1833000,1404588252
Orlando,Orlando,28.4772,-81.3369,UNITED STATES,US,USA,Florida,,1822394,1840015099
Mersin,Mersin,36.8000,34.6167,TURKEY,TR,TUR,Mersin,admin,1814468,1792520282
Kyōto,Kyoto,35.0111,135.7669,JAPAN,JP,JPN,Kyōto,admin,1805000,1392622735
Manaus,Manaus,-3.1000,-60.0167,BRAZIL,BR,BRA,Amazonas,admin,1802014,1076607274
San Jose,San Jose,37.3019,-121.8486,UNITED STATES,US,USA,California,,1798103,1840021570
Warsaw,Warsaw,52.2167,21.0333,POLAND,PL,POL,Mazowieckie,primary,1790658,1616024847
Brussels,Brussels,50.8333,4.3333,BELGIUM,BE,BEL,Brussels-Capital Region,primary,1743000,1056469830
Budapest,Budapest,47.4983,19.0408,HUNGARY,HU,HUN,Budapest,primary,1752286,1348611435
Diyarbakır,Diyarbakir,37.9108,40.2367,TURKEY,TR,TUR,Diyarbakır,admin,1732396,1792536241
Cleveland,Cleveland,41.4767,-81.6804,UNITED STATES,US,USA,Ohio,,1710093,1840000596
Pittsburgh,Pittsburgh,40.4396,-79.9762,UNITED STATES,US,USA,Pennsylvania,,1703266,1840001254
Patna,Patna,25.6100,85.1414,INDIA,IN,IND,Bihār,admin,1684222,1356821429
Austin,Austin,30.3004,-97.7522,UNITED STATES,US,USA,Texas,admin,1687311,1840019590
Kampala,Kampala,0.3136,32.5811,UGANDA,UG,UGA,Kampala,primary,1659600,1800406299
Ecatepec,Ecatepec,19.6097,-99.0600,MEXICO,MX,MEX,México,minor,1656107,1484003694
Cincinnati,Cincinnati,39.1413,-84.5061,UNITED STATES,US,USA,Ohio,,1662691,1840003814
Makassar,Makassar,-5.1331,119.4136,INDONESIA,ID,IDN,Sulawesi Selatan,admin,1651146,1360051337
Newcastle,Newcastle,55.0077,-1.6578,UNITED KINGDOM,GB,GBR,Newcastle upon Tyne,,1650000,1826292220
Depok,Depok,-6.3940,106.8225,INDONESIA,ID,IDN,Jawa Barat,,1631951,1360962899
Zhongli,Zhongli,24.9650,121.2168,TAIWAN,TW,TWN,Taoyuan,,1632616,1158025380
Kansas City,Kansas City,39.1239,-94.5541,UNITED STATES,US,USA,Missouri,,1636715,1840008535
Davao,Davao,7.0667,125.6000,PHILIPPINES,PH,PHL,Davao,admin,1632991,1608906877
Manhattan,Manhattan,40.7834,-73.9662,UNITED STATES,US,USA,New York,,1628706,1840034000
Semarang,Semarang,-6.9667,110.4167,INDONESIA,ID,IDN,Jawa Tengah,admin,1621384,1360745537
Caloocan City,Caloocan City,14.6500,120.9667,PHILIPPINES,PH,PHL,Caloocan,admin,1583978,1608897690
Novosibirsk,Novosibirsk,55.0333,82.9167,RUSSIA,RU,RUS,Novosibirskaya Oblast’,admin,1602915,1643399240
Indianapolis,Indianapolis,39.7771,-86.1458,UNITED STATES,US,USA,Indiana,admin,1588961,1840030084
Puebla,Puebla,19.0333,-98.1833,MEXICO,MX,MEX,Puebla,admin,1576259,1484416394
Madurai,Madurai,9.9197,78.1194,INDIA,IN,IND,Tamil Nādu,minor,1561129,1356257289
Recife,Recife,-8.0539,-34.8808,BRAZIL,BR,BRA,Pernambuco,admin,1555039,1076137337
Columbus,Columbus,39.9862,-82.9850,UNITED STATES,US,USA,Ohio,admin,1562009,1840003760
Kōbe,Kobe,34.6913,135.1830,JAPAN,JP,JPN,Hyōgo,admin,1513193,1392978082
Charlotte,Charlotte,35.2080,-80.8304,UNITED STATES,US,USA,North Carolina,,1512923,1840014557
Belém,Belem,-1.4558,-48.5039,BRAZIL,BR,BRA,Pará,admin,1499641,1076646823
Porto Alegre,Porto Alegre,-30.0328,-51.2300,BRAZIL,BR,BRA,Rio Grande do Sul,admin,1484941,1076658221
Onitsha,Onitsha,6.1667,6.7833,NIGERIA,NG,NGA,Anambra,minor,1483000,1566593483
Virginia Beach,Virginia Beach,36.7335,-76.0435,UNITED STATES,US,USA,Virginia,,1478868,1840003871
Munich,Munich,48.1372,11.5755,GERMANY,DE,DEU,Bavaria,admin,1471508,1276692352
Auckland,Auckland,-36.8500,174.7833,NEW ZEALAND,NZ,NZL,Auckland,admin,1470100,1554435911
Yekaterinburg,Yekaterinburg,56.8356,60.6128,RUSSIA,RU,RUS,Sverdlovskaya Oblast’,admin,1468833,1643582706
Palembang,Palembang,-2.9833,104.7644,INDONESIA,ID,IDN,Sumatera Selatan,admin,1452456,1360902897
León de los Aldama,Leon de los Aldama,21.1167,-101.6833,MEXICO,MX,MEX,Guanajuato,minor,1454793,1484811199
Kharkiv,Kharkiv,50.0000,36.2292,UKRAINE,UA,UKR,Kharkivs’ka Oblast’,admin,1446107,1804588111
Kawanakajima,Kawanakajima,35.5300,139.7050,JAPAN,JP,JPN,Kanagawa,,1437266,1392879600
Birstall,Birstall,52.6736,-1.1200,UNITED KINGDOM,GB,GBR,Leicester,,1424216,1826141026
Bronx,Bronx,40.8501,-73.8662,UNITED STATES,US,USA,New York,,1418207,1840033999
The Hague,The Hague,52.0767,4.2986,NETHERLANDS,NL,NLD,Zuid-Holland,primary,1406000,1528799905
Owerri,Owerri,5.4833,7.0333,NIGERIA,NG,NGA,Imo,admin,1401873,1566679132
Sharjah,Sharjah,25.3575,55.3919,UNITED ARAB EMIRATES,AE,ARE,Ash Shāriqah,admin,1400000,1784152993
Ulaanbaatar,Ulaanbaatar,47.9203,106.9172,MONGOLIA,MN,MNG,Ulaanbaatar,primary,1396288,1496024767
Goiânia,Goiania,-16.6806,-49.2564,BRAZIL,BR,BRA,Goiás,admin,1393575,1076034054
Kayseri,Kayseri,38.7333,35.4833,TURKEY,TR,TUR,Kayseri,admin,1389680,1792945815
Belgrade,Belgrade,44.8167,20.4667,SERBIA,RS,SRB,Beograd,primary,1378682,1688374696
Milan,Milan,45.4669,9.1900,ITALY,IT,ITA,Lombardy,admin,1366180,1380724377
Milwaukee,Milwaukee,43.0642,-87.9673,UNITED STATES,US,USA,Wisconsin,,1365787,1840003046
Sofia,Sofia,42.6979,23.3217,BULGARIA,BG,BGR,Sofia-Grad,primary,1355142,1100762037
Adelaide,Adelaide,-34.9289,138.6011,AUSTRALIA,AU,AUS,South Australia,admin,1345777,1036538171
Samsun,Samsun,41.2867,36.3300,TURKEY,TR,TUR,Samsun,admin,1335716,1792169057
Khulna,Khulna,22.8167,89.5500,BANGLADESH,BD,BGD,Khulna,admin,1311100,1050667339
Córdoba,Cordoba,-31.4167,-64.1833,ARGENTINA,AR,ARG,Córdoba,admin,1329604,1032803249
Guarulhos,Guarulhos,-23.4667,-46.5333,BRAZIL,BR,BRA,São Paulo,,1324781,1076730420
Juárez,Juarez,31.7386,-106.4870,MEXICO,MX,MEX,Chihuahua,minor,1321004,1484840083
Saitama,Saitama,35.8617,139.6453,JAPAN,JP,JPN,Saitama,admin,1320571,1392017719
Montevideo,Montevideo,-34.8667,-56.1667,URUGUAY,UY,URY,Montevideo,primary,1319108,1858107000
Doha,Doha,25.3000,51.5333,QATAR,QA,QAT,Ad Dawḩah,primary,1312947,1634459660
Hiroshima,Hiroshima,34.4000,132.4500,JAPAN,JP,JPN,Hiroshima,admin,1306589,1392373695
Barranquilla,Barranquilla,10.9639,-74.7964,COLOMBIA,CO,COL,Atlántico,admin,1274250,1170179113
Nizhniy Novgorod,Nizhniy Novgorod,56.3269,44.0075,RUSSIA,RU,RUS,Nizhegorodskaya Oblast’,admin,1264075,1643012126
Kazan,Kazan,55.7908,49.1144,RUSSIA,RU,RUS,Tatarstan,admin,1243500,1643101260
Calgary,Calgary,51.0500,-114.0667,CANADA,CA,CAN,Alberta,,1239220,1124690423
Cần Thơ,Can Tho,10.0333,105.7833,VIETNAM,VN,VNM,Cần Thơ,admin,1237300,1704783472
Abuja,Abuja,9.0556,7.4914,NIGERIA,NG,NGA,Federal Capital Territory,primary,1235880,1566342270
Vila Velha,Vila Velha,3.2167,-51.2167,BRAZIL,BR,BRA,Amapá,,1209091,1076575691
Chelyabinsk,Chelyabinsk,55.1500,61.4000,RUSSIA,RU,RUS,Chelyabinskaya Oblast’,admin,1202371,1643224011
Mombasa,Mombasa,-4.0500,39.6667,KENYA,KE,KEN,Mombasa,admin,1200000,1404512373
Providence,Providence,41.8230,-71.4187,UNITED STATES,US,USA,Rhode Island,admin,1203230,1840003289
Maiduguri,Maiduguri,11.8333,13.1500,NIGERIA,NG,NGA,Borno,admin,1197497,1566540296
Rosario,Rosario,-32.9575,-60.6394,ARGENTINA,AR,ARG,Santa Fe,minor,1193605,1032770677
Benin City,Benin City,6.3176,5.6145,NIGERIA,NG,NGA,Edo,admin,1190000,1566080151
Pikine,Pikine,14.7500,-17.4000,SENEGAL,SN,SEN,Dakar,,1170791,1686165071
Dublin,Dublin,53.3497,-6.2603,IRELAND,IE,IRL,Dublin,primary,1173179,1372595407
Jacksonville,Jacksonville,30.3322,-81.6749,UNITED STATES,US,USA,Florida,,1181496,1840015031
Srīnagar,Srinagar,34.0911,74.8061,INDIA,IN,IND,Jammu and Kashmīr,admin,1180570,1356442950
Omsk,Omsk,54.9667,73.3833,RUSSIA,RU,RUS,Omskaya Oblast’,admin,1178391,1643360863
Cilacap,Cilacap,-7.7167,109.0170,INDONESIA,ID,IDN,Jawa Tengah,minor,1174964,1360503809
Bandar Lampung,Bandar Lampung,-5.4294,105.2625,INDONESIA,ID,IDN,Lampung,admin,1166761,1360243491
Samara,Samara,53.1833,50.1167,RUSSIA,RU,RUS,Samarskaya Oblast’,admin,1169719,1643205757
Campinas,Campinas,-22.9009,-47.0573,BRAZIL,BR,BRA,São Paulo,,1164098,1076145766
Dakar,Dakar,14.7319,-17.4572,SENEGAL,SN,SEN,Dakar,primary,1146053,1686604760
Zapopan,Zapopan,20.7167,-103.4000,MEXICO,MX,MEX,Jalisco,minor,1155790,1484198680
Santiago,Santiago,19.4500,-70.7000,DOMINICAN REPUBLIC,DO,DOM,Cibao Norte,admin,1142947,1214985348
Callao,Callao,-12.0611,-77.1333,PERU,PE,PER,Callao,admin,1129854,1604422141
Ciudad Nezahualcóyotl,Ciudad Nezahualcoyotl,19.4100,-99.0300,MEXICO,MX,MEX,México,,1109363,1484016661
Rostov,Rostov,47.2333,39.7167,RUSSIA,RU,RUS,Rostovskaya Oblast’,admin,1125299,1643013518
Nezahualcóyotl,Nezahualcoyotl,19.4000,-98.9889,MEXICO,MX,MEX,México,minor,1110565,1484074285
Ufa,Ufa,54.7333,55.9667,RUSSIA,RU,RUS,Bashkortostan,admin,1115560,1643722928
Sevilla,Sevilla,37.3900,-5.9900,SPAIN,ES,ESP,Andalusia,admin,1107000,1724991838
Mexicali,Mexicali,32.6633,-115.4678,MEXICO,MX,MEX,Baja California,admin,1102342,1484788702
Biên Hòa,Bien Hoa,10.9277,106.8681,VIETNAM,VN,VNM,Đồng Nai,admin,1104000,1704863046
Ikare,Ikare,7.5304,5.7600,NIGERIA,NG,NGA,Ondo,minor,1099931,1566683694
Salt Lake City,Salt Lake City,40.7777,-111.9306,UNITED STATES,US,USA,Utah,admin,1098526,1840021383
Irbid,Irbid,32.5556,35.8500,JORDAN,JO,JOR,Irbid,admin,1088100,1400221568
Cologne,Cologne,50.9422,6.9578,GERMANY,DE,DEU,North Rhine-Westphalia,,1085664,1276015998
Krasnoyarsk,Krasnoyarsk,56.0167,92.8667,RUSSIA,RU,RUS,Krasnoyarskiy Kray,admin,1083865,1643544975
São Gonçalo,Sao Goncalo,-22.8269,-43.0539,BRAZIL,BR,BRA,Rio de Janeiro,,1077687,1076485783
Nashville,Nashville,36.1715,-86.7843,UNITED STATES,US,USA,Tennessee,admin,1081903,1840036155
Rānchi,Ranchi,23.3556,85.3347,INDIA,IN,IND,Jharkhand,admin,1073440,1356110588
Vereeniging,Vereeniging,-26.6736,27.9319,SOUTH AFRICA,ZA,ZAF,Gauteng,,1074000,1710271883
Richmond,Richmond,37.5295,-77.4756,UNITED STATES,US,USA,Virginia,admin,1075798,1840001698
São Luís,Sao Luis,-2.5300,-44.3028,BRAZIL,BR,BRA,Maranhão,admin,1073893,1076819308
Memphis,Memphis,35.1046,-89.9773,UNITED STATES,US,USA,Tennessee,,1066967,1840015457
Edmonton,Edmonton,53.5344,-113.4903,CANADA,CA,CAN,Alberta,,1062643,1124290735
Tunis,Tunis,36.8008,10.1800,TUNISIA,TN,TUN,Tunis,primary,1056247,1788742103
Sendai,Sendai,38.2683,140.8694,JAPAN,JP,JPN,Miyagi,admin,1058070,1392457903
Voronezh,Voronezh,51.6717,39.2106,RUSSIA,RU,RUS,Voronezhskaya Oblast’,admin,1047549,1643811064
Perm,Perm,58.0139,56.2489,RUSSIA,RU,RUS,Permskiy Kray,admin,1048005,1643294442
Bogor,Bogor,-6.6000,106.8000,INDONESIA,ID,IDN,Jawa Barat,,1030720,1360771925
Raleigh,Raleigh,35.8325,-78.6435,UNITED STATES,US,USA,North Carolina,admin,1038738,1840014497
Cartagena,Cartagena,10.4236,-75.5253,COLOMBIA,CO,COL,Bolívar,admin,1036412,1170886102
Chandīgarh,Chandigarh,30.7353,76.7911,INDIA,IN,IND,Chandīgarh,admin,1026459,1356739179
Bishkek,Bishkek,42.8667,74.5667,KYRGYZSTAN,KG,KGZ,Bishkek,primary,1027200,1417191971
Ogbomoso,Ogbomoso,8.1333,4.2500,NIGERIA,NG,NGA,Oyo,minor,1032000,1566373448
Maceió,Maceio,-9.6658,-35.7350,BRAZIL,BR,BRA,Alagoas,admin,1029129,1076440479
Patam,Patam,1.0678,104.0167,INDONESIA,ID,IDN,Kepulauan Riau,,1029808,1360893799
Tekirdağ,Tekirdag,40.9833,27.5167,TURKEY,TR,TUR,Tekirdağ,admin,1029927,1792519395
Odesa,Odesa,46.4775,30.7326,UKRAINE,UA,UKR,Odes’ka Oblast’,admin,1017699,1804178102
New Orleans,New Orleans,30.0687,-89.9288,UNITED STATES,US,USA,Louisiana,,1020886,1840001839
Thủ Đức,Thu Duc,10.8199,106.7909,VIETNAM,VN,VNM,Hồ Chí Minh,minor,1013795,1704361621
Volgograd,Volgograd,48.7086,44.5147,RUSSIA,RU,RUS,Volgogradskaya Oblast’,admin,1015586,1643577201
Raipur,Raipur,21.2379,81.6337,INDIA,IN,IND,Chhattīsgarh,admin,1010087,1356374983
Nice,Nice,43.7034,7.2663,FRANCE,FR,FRA,Provence-Alpes-Côte d’Azur,minor,1006402,1250774553
Arequipa,Arequipa,-16.3988,-71.5369,PERU,PE,PER,Arequipa,admin,1008290,1604723954
Port Harcourt,Port Harcourt,4.7500,7.0000,NIGERIA,NG,NGA,Rivers,admin,1005904,1566070649
Louisville,Louisville,38.1663,-85.6485,UNITED STATES,US,USA,Kentucky,,1005654,1840030815
Dnipro,Dnipro,48.4500,34.9833,UKRAINE,UA,UKR,Dnipropetrovs’ka Oblast’,admin,1002111,1804152933
Abu Dhabi,Abu Dhabi,24.4781,54.3686,UNITED ARAB EMIRATES,AE,ARE,Abū Z̧aby,primary,1000000,1784176710
Stockholm,Stockholm,59.3294,18.0686,SWEDEN,SE,SWE,Stockholm,primary,972647,1752425602
Ottawa,Ottawa,45.4247,-75.6950,CANADA,CA,CAN,Ontario,,989567,1124399363
Jerusalem,Jerusalem,31.7833,35.2167,ISRAEL,IL,ISR,Southern,primary,919438,1376261644
Amsterdam,Amsterdam,52.3667,4.8833,NETHERLANDS,NL,NLD,Noord-Holland,primary,862965,1528355309
Zagreb,Zagreb,45.8000,15.9500,CROATIA,HR,HRV,"Zagreb, Grad",primary,790017,1191233290
Vientiane,Vientiane,17.9667,102.6000,LAOS,LA,LAO,Viangchan,primary,760000,1418732714
Colombo,Colombo,6.9167,79.8333,SRI LANKA,LK,LKA,Western,primary,752993,1144251314
Pretoria,Pretoria,-25.7464,28.1881,SOUTH AFRICA,ZA,ZAF,Gauteng,primary,741651,1710176249
Winnipeg,Winnipeg,49.8844,-97.1464,CANADA,CA,CAN,Manitoba,,705244,1124224963
Quebec City,Quebec City,46.8139,-71.2081,CANADA,CA,CAN,Quebec,,705103,1124823933
Oslo,Oslo,59.9111,10.7528,NORWAY,NO,NOR,Oslo,primary,693494,1578324706
Athens,Athens,37.9842,23.7281,GREECE,GR,GRC,Attikí,primary,664046,1300715560
Helsinki,Helsinki,60.1756,24.9342,FINLAND,FI,FIN,Uusimaa,primary,642045,1246177997
Riga,Riga,56.9475,24.1069,LATVIA,LV,LVA,Rīga,primary,614618,1428586192
Copenhagen,Copenhagen,55.6761,12.5689,DENMARK,DK,DNK,Hovedstaden,primary,602481,1208763942
Vilnius,Vilnius,54.6833,25.2833,LITHUANIA,LT,LTU,Vilniaus Miestas,primary,574147,1440887149
Lisbon,Lisbon,38.7452,-9.1604,PORTUGAL,PT,PRT,Lisboa,primary,506654,1620619017
Kitchener,Kitchener,43.4186,-80.4728,CANADA,CA,CAN,Ontario,,470015,1124158530
Tallinn,Tallinn,59.4372,24.7450,ESTONIA,EE,EST,Harjumaa,primary,438341,1233260021
Cape Town,Cape Town,-33.9250,18.4250,SOUTH AFRICA,ZA,ZAF,Western Cape,primary,433688,1710680650
Bratislava,Bratislava,48.1447,17.1128,SLOVAKIA,SK,SVK,Bratislavský,primary,429564,1703195001
Tirana,Tirana,41.3300,19.8200,ALBANIA,AL,ALB,Tiranë,primary,418495,1008162156
Canberra,Canberra,-35.2931,149.1269,AUSTRALIA,AU,AUS,Australian Capital Territory,primary,426704,1036142029
Wellington,Wellington,-41.2889,174.7772,NEW ZEALAND,NZ,NZL,Wellington,primary,418500,1554772152
Beirut,Beirut,33.8869,35.5131,LEBANON,LB,LBN,Beyrouth,primary,361366,1422847713
Halifax,Halifax,44.6475,-63.5906,CANADA,CA,CAN,Nova Scotia,,403131,1124130981
Victoria,Victoria,48.4283,-123.3647,CANADA,CA,CAN,British Columbia,,335696,1124147219
Maseru,Maseru,-29.3100,27.4800,LESOTHO,LS,LSO,Maseru,primary,330790,1426977668
Sucre,Sucre,-19.0431,-65.2592,BOLIVIA,BO,BOL,Chuquisaca,primary,300000,1068823873
San José,San Jose,9.9333,-84.0833,COSTA RICA,CR,CRI,San José,primary,288054,1188749877
Ljubljana,Ljubljana,46.0500,14.5167,SLOVENIA,SI,SVN,Ljubljana,primary,286745,1705917455
Bloemfontein,Bloemfontein,-29.1000,26.2167,SOUTH AFRICA,ZA,ZAF,Free State,primary,256185,1710495933
Fort-de-France,Fort-de-France,14.6104,-61.0800,MARTINIQUE,MQ,MTQ,,primary,253995,1474969110
Gaborone,Gaborone,-24.6569,25.9086,BOTSWANA,BW,BWA,Gaborone,primary,231626,1072756768
Gibraltar,Gibraltar,36.1324,-5.3781,GIBRALTAR,GI,GIB,,primary,187083,1292385245
Podgorica,Podgorica,42.4397,19.2661,MONTENEGRO,ME,MNE,Podgorica,primary,174515,1499454516
Willemstad,Willemstad,12.1080,-68.9350,CURAÇAO,CW,CUW,,primary,150000,1531000000
New Delhi,New Delhi,28.7000,77.2000,INDIA,IN,IND,Delhi,primary,142004,1356215164
Bern,Bern,46.9480,7.4474,SWITZERLAND,CH,CHE,Bern,primary,133798,1756374318
Reykjavík,Reykjavik,64.1475,-21.9350,ICELAND,IS,ISL,,primary,128793,1352327190
Luxembourg,Luxembourg,49.6106,6.1328,LUXEMBOURG,LU,LUX,Luxembourg,primary,124509,1442262731
Sri Jayewardenepura Kotte,Sri Jayewardenepura Kotte,6.9000,79.9164,SRI LANKA,LK,LKA,Western,primary,115826,1144239330
Thimphu,Thimphu,27.4833,89.6333,BHUTAN,BT,BTN,Thimphu,primary,104000,1064010361
Port-Vila,Port-Vila,-17.7333,168.3167,VANUATU,VU,VUT,Shefa,primary,51437,1548805075
Hamilton,Hamilton,32.2942,-64.7839,BERMUDA,BM,BMU,Hamilton,primary,52320,1060000000
Monaco,Monaco,43.7396,7.4069,MONACO,MC,MCO,,primary,36371,1492854256
Douglas,Douglas,54.1500,-4.4819,ISLE OF MAN,IM,IMN,,primary,35854,1833688345
Saint Helier,Saint Helier,49.1833,-2.1167,JERSEY,JE,JEY,,primary,33522,1832490253
Vaduz,Vaduz,47.1415,9.5215,LIECHTENSTEIN,LI,LIE,Vaduz,primary,36281,1438317747
Andorra la Vella,Andorra la Vella,42.5000,1.5000,ANDORRA,AD,AND,Andorra la Vella,primary,22151,1020828846
Nuuk,Nuuk,64.1750,-51.7333,GREENLAND,GL,GRL,Sermersooq,primary,18326,1304028354
Tórshavn,Torshavn,62.0000,-6.7833,FAROE ISLANDS,FO,FRO,,primary,13326,1234904517
Pago Pago,Pago Pago,-14.2740,-170.7046,AMERICAN SAMOA,AS,ASM,,primary,12576,1016976740
Valletta,Valletta,35.8978,14.5125,MALTA,MT,MLT,Valletta,primary,6444,1470574399
San Marino,San Marino,43.9320,12.4484,SAN MARINO,SM,SMR,San Marino Città,primary,4040,1674741947
Capitol Hill,Capitol Hill,15.2137,145.7546,NORTHERN MARIANA ISLANDS,MP,MNP,,primary,2500,1580556972
Saint-Pierre,Saint-Pierre,46.7811,-56.1764,SAINT PIERRE AND MIQUELON,PM,SPM,,primary,,1666340272
Longyearbyen,Longyearbyen,78.2167,15.6333,SVALBARD,XR,XSV,,primary,,1930654114
Adamstown,Adamstown,-25.0667,-130.0833,PITCAIRN ISLANDS,PN,PCN,,primary,,1612000000
Flying Fish Cove,Flying Fish Cove,-10.4167,105.7167,CHRISTMAS ISLAND,CX,CXR,,primary,,1162889600
Quảng Hà,Quang Ha,16.0600,108.2500,VIETNAM,VN,VNM,Quảng Nam,,1000000,1704966442
Soacha,Soacha,4.5781,-74.2144,COLOMBIA,CO,COL,Cundinamarca,minor,995268,1170512000
Kitaku,Kitaku,33.8704,130.8200,JAPAN,JP,JPN,Fukuoka,,997536,1392129541
Glasgow,Glasgow,55.8609,-4.2514,UNITED KINGDOM,GB,GBR,Glasgow City,,985290,1826836462
Chiba,Chiba,35.6000,140.1000,JAPAN,JP,JPN,Chiba,admin,981738,1392107144
Natal,Natal,-6.9838,-60.2699,BRAZIL,BR,BRA,Amazonas,,980588,1076336975
Naples,Naples,40.8333,14.2500,ITALY,IT,ITA,Campania,admin,966144,1380646673
Oklahoma City,Oklahoma City,35.4676,-97.5136,UNITED STATES,US,USA,Oklahoma,admin,972943,1840020428
Toulouse,Toulouse,43.6045,1.4440,FRANCE,FR,FRA,Occitanie,admin,968638,1250258110
Málaga,Malaga,36.7194,-4.4200,SPAIN,ES,ESP,Andalusia,minor,967250,1724397372
Denizli,Denizli,37.7731,29.0878,TURKEY,TR,TUR,Denizli,admin,963464,1792161179
Dispur,Dispur,26.1500,91.7700,INDIA,IN,IND,Assam,admin,957352,1356960169
Aguascalientes,Aguascalientes,21.8760,-102.2960,MEXICO,MX,MEX,Aguascalientes,admin,934424,1484666646
Donetsk,Donetsk,48.0089,37.8042,UKRAINE,UA,UKR,Donets’ka Oblast’,admin,929063,1804963805
Trujillo,Trujillo,-8.1119,-79.0289,PERU,PE,PER,La Libertad,admin,919899,1604613706
Cebu City,Cebu City,10.3000,123.9000,PHILIPPINES,PH,PHL,Cebu,admin,922611,1608136151
Bridgeport,Bridgeport,41.1918,-73.1953,UNITED STATES,US,USA,Connecticut,,924449,1840004836
Antwerp,Antwerp,51.2206,4.4003,BELGIUM,BE,BEL,Flanders,minor,920000,1056168623
Padang,Padang,-0.9556,100.3606,INDONESIA,ID,IDN,Sumatera Barat,admin,914970,1360900986
Buffalo,Buffalo,42.9016,-78.8487,UNITED STATES,US,USA,New York,,914341,1840000386
Fort Worth,Fort Worth,32.7811,-97.3473,UNITED STATES,US,USA,Texas,,909585,1840020696
Campo Grande,Campo Grande,-20.4686,-54.6222,BRAZIL,BR,BRA,Mato Grosso do Sul,admin,906092,1076660445
Hartford,Hartford,41.7661,-72.6834,UNITED STATES,US,USA,Connecticut,admin,905152,1840004773
Lhasa,Lhasa,29.6500,91.1000,CHINA,CN,CHN,Tibet,admin,902500,1156369972
Mérida,Merida,20.9700,-89.6200,MEXICO,MX,MEX,Yucatán,admin,892363,1484396779
Concepción,Concepcion,-36.8200,-73.0445,CHILE,CL,CHL,Biobío,admin,889725,1152838958
Abeokuta,Abeokuta,7.1500,3.3500,NIGERIA,NG,NGA,Ogun,admin,888924,1566979497
Tucson,Tucson,32.1545,-110.8782,UNITED STATES,US,USA,Arizona,,888486,1840022101
Krasnodar,Krasnodar,45.0333,38.9833,RUSSIA,RU,RUS,Krasnodarskiy Kray,admin,881476,1643438227
Natal,Natal,-5.7950,-35.2089,BRAZIL,BR,BRA,Rio Grande do Norte,admin,877662,1076697777
Chihuahua,Chihuahua,28.6353,-106.0889,MEXICO,MX,MEX,Chihuahua,admin,878062,1484335603
Klang,Klang,3.0333,101.4500,MALAYSIA,MY,MYS,Selangor,,878000,1458509635
Turin,Turin,45.0667,7.7000,ITALY,IT,ITA,Piedmont,admin,870952,1380244627
Jos,Jos,9.9333,8.8833,NIGERIA,NG,NGA,Plateau,admin,873943,1566773679
Marseille,Marseille,43.2964,5.3700,FRANCE,FR,FRA,Provence-Alpes-Côte d’Azur,admin,870018,1250774071
Eskişehir,Eskisehir,39.7767,30.5206,TURKEY,TR,TUR,Eskişehir,admin,871187,1792933981
Teresina,Teresina,-5.0949,-42.8042,BRAZIL,BR,BRA,Piauí,admin,868075,1076727667
Ipoh,Ipoh,4.6000,101.0700,MALAYSIA,MY,MYS,Perak,admin,866772,1458423505
Liverpool,Liverpool,53.4000,-2.9833,UNITED KINGDOM,GB,GBR,Liverpool,,864122,1826558678
Zamboanga City,Zamboanga City,6.9167,122.0833,PHILIPPINES,PH,PHL,Zamboanga,admin,861799,1608189351
Southampton,Southampton,50.9000,-1.4000,UNITED KINGDOM,GB,GBR,Southampton,,855569,1826602892
Pekanbaru,Pekanbaru,0.5333,101.4500,INDONESIA,ID,IDN,Riau,admin,855221,1360422679
Portsmouth,Portsmouth,50.8058,-1.0872,UNITED KINGDOM,GB,GBR,Portsmouth,,855679,1826964096
Ilorin,Ilorin,8.5000,4.5500,NIGERIA,NG,NGA,Kwara,admin,847582,1566480168
Omaha,Omaha,41.2627,-96.0522,UNITED STATES,US,USA,Nebraska,,847819,1840009315
Saratov,Saratov,51.5333,46.0000,RUSSIA,RU,RUS,Saratovskaya Oblast’,admin,845300,1643556540
São Bernardo do Campo,Sao Bernardo do Campo,-23.6939,-46.5650,BRAZIL,BR,BRA,São Paulo,,844483,1076793227
Iguaçu,Iguacu,-22.7400,-43.4700,BRAZIL,BR,BRA,Rio de Janeiro,,844583,1076339714
El Paso,El Paso,31.8479,-106.4309,UNITED STATES,US,USA,Texas,,843386,1840023252
Denpasar,Denpasar,-8.6667,115.2167,INDONESIA,ID,IDN,Bali,admin,834881,1360848527
Naucalpan de Juárez,Naucalpan de Juarez,19.4753,-99.2378,MEXICO,MX,MEX,México,minor,833779,1484850125
Bhubaneshwar,Bhubaneshwar,20.2644,85.8281,INDIA,IN,IND,Odisha,admin,837737,1356140143
Warri,Warri,5.5167,5.7500,NIGERIA,NG,NGA,Delta,minor,830106,1566325734
Butterworth,Butterworth,5.3942,100.3664,MALAYSIA,MY,MYS,Pulau Pinang,,821652,1458469233
San Luis Potosí,San Luis Potosi,22.1511,-100.9761,MEXICO,MX,MEX,San Luis Potosí,admin,824229,1484583620
João Pessoa,Joao Pessoa,-7.1200,-34.8800,BRAZIL,BR,BRA,Paraíba,admin,817511,1076922014
Toluca,Toluca,19.2925,-99.6569,MEXICO,MX,MEX,México,admin,819561,1484124846
Honolulu,Honolulu,21.3294,-157.8460,UNITED STATES,US,USA,Hawaii,admin,820987,1840013305
Querétaro,Queretaro,20.5875,-100.3928,MEXICO,MX,MEX,Querétaro,admin,804663,1484604775
Hermosillo,Hermosillo,29.0989,-110.9542,MEXICO,MX,MEX,Sonora,admin,812229,1484015319
Taguig City,Taguig City,14.5167,121.0500,PHILIPPINES,PH,PHL,Taguig,admin,804915,1608766695
Saltillo,Saltillo,25.4333,-101.0000,MEXICO,MX,MEX,Coahuila de Zaragoza,admin,807537,1484107245
Trabzon,Trabzon,41.0050,39.7225,TURKEY,TR,TUR,Trabzon,admin,807903,1792019202
Valencia,Valencia,39.4700,-0.3764,SPAIN,ES,ESP,Valencia,admin,800215,1724981666
McAllen,McAllen,26.2273,-98.2471,UNITED STATES,US,USA,Texas,,804114,1840021024
Abaeté,Abaete,-19.1583,-45.4522,BRAZIL,BR,BRA,Minas Gerais,,800000,1076413528
Palermo,Palermo,2.8883,-75.4339,COLOMBIA,CO,COL,Huila,minor,800000,1170614290
Johor Bahru,Johor Bahru,1.4556,103.7611,MALAYSIA,MY,MYS,Johor,admin,797882,1458747615
Morelia,Morelia,19.7683,-101.1894,MEXICO,MX,MEX,Michoacán de Ocampo,,784776,1484669072
Niigata,Niigata,37.9161,139.0364,JAPAN,JP,JPN,Niigata,admin,790646,1392913753
Pasig City,Pasig City,14.5750,121.0833,PHILIPPINES,PH,PHL,Pasig,admin,755300,1608278212
Hamamatsu,Hamamatsu,34.7167,137.7333,JAPAN,JP,JPN,Shizuoka,,788211,1392174500
Culiacán,Culiacan,24.8069,-107.3939,MEXICO,MX,MEX,Sinaloa,admin,785800,1484516810
Malang,Malang,-7.9800,112.6200,INDONESIA,ID,IDN,Jawa Timur,,780000,1360141408
Antipolo,Antipolo,14.5842,121.1763,PHILIPPINES,PH,PHL,Rizal,admin,776386,1608824345
Nottingham,Nottingham,52.9500,-1.1500,UNITED KINGDOM,GB,GBR,Nottingham,,768638,1826122597
Kraków,Krakow,50.0614,19.9372,POLAND,PL,POL,Małopolskie,admin,766739,1616172264
Erzurum,Erzurum,39.9097,41.2756,TURKEY,TR,TUR,Erzurum,admin,767848,1792511957
Hempstead,Hempstead,40.6629,-73.6089,UNITED STATES,US,USA,New York,,767417,1840005293
Al ‘Ayn,Al `Ayn,24.2075,55.7447,UNITED ARAB EMIRATES,AE,ARE,Abū Z̧aby,,766936,1784674685
Albuquerque,Albuquerque,35.1053,-106.6464,UNITED STATES,US,USA,New Mexico,,761195,1840019176
Kaduna,Kaduna,10.5231,7.4403,NIGERIA,NG,NGA,Kaduna,admin,760084,1566368729
Tlalnepantla,Tlalnepantla,19.5367,-99.1947,MEXICO,MX,MEX,México,minor,750224,1484861603
Frankfurt,Frankfurt,50.1136,8.6797,GERMANY,DE,DEU,Hesse,minor,753056,1276054552
Samarinda,Samarinda,-0.5022,117.1536,INDONESIA,ID,IDN,Kalimantan Timur,admin,753370,1360684979
Changhua,Changhua,24.0667,120.5333,TAIWAN,TW,TWN,Changhua,admin,750000,1158439005
Pietermaritzburg,Pietermaritzburg,-29.5833,30.4167,SOUTH AFRICA,ZA,ZAF,KwaZulu-Natal,admin,750845,1710690280
Cúcuta,Cucuta,7.9075,-72.5047,COLOMBIA,CO,COL,Norte de Santander,admin,750000,1170743755
Thiruvananthapuram,Thiruvananthapuram,8.5000,76.8997,INDIA,IN,IND,Kerala,admin,743691,1356024354
Tyumen,Tyumen,57.1500,65.5333,RUSSIA,RU,RUS,Tyumenskaya Oblast’,admin,744554,1643040435
Cancún,Cancun,21.1606,-86.8475,MEXICO,MX,MEX,Quintana Roo,minor,743626,1484010310
Zaporizhzhia,Zaporizhzhia,47.8378,35.1383,UKRAINE,UA,UKR,Zaporiz’ka Oblast’,admin,741717,1804644752
Tlajomulco de Zúñiga,Tlajomulco de Zuniga,20.4736,-103.4431,MEXICO,MX,MEX,Jalisco,minor,727750,1484017493
Kumamoto,Kumamoto,32.8031,130.7078,JAPAN,JP,JPN,Kumamoto,admin,738567,1392106283
Sokoto,Sokoto,13.0622,5.2339,NIGERIA,NG,NGA,Sokoto,admin,732178,1566574518
Birmingham,Birmingham,33.5277,-86.7987,UNITED STATES,US,USA,Alabama,,739573,1840006507
Oyo,Oyo,7.8333,3.9333,NIGERIA,NG,NGA,Oyo,minor,736072,1566930579
Rennes,Rennes,48.1147,-1.6794,FRANCE,FR,FRA,Bretagne,admin,727357,1250363682
Comodoro Rivadavia,Comodoro Rivadavia,-45.8667,-67.5000,ARGENTINA,AR,ARG,Chubut,minor,730266,1032042035
Bristol,Bristol,51.4500,-2.5833,UNITED KINGDOM,GB,GBR,"Bristol, City of",,724000,1826921049
Lviv,Lviv,49.8419,24.0315,UKRAINE,UA,UKR,L’vivs’ka Oblast’,admin,724314,1804939658
Bremen,Bremen,53.1153,8.7975,GERMANY,DE,DEU,Bremen,admin,724909,1276376509
Reynosa,Reynosa,26.0922,-98.2778,MEXICO,MX,MEX,Tamaulipas,minor,725793,1484737671
Sagamihara,Sagamihara,35.5667,139.3667,JAPAN,JP,JPN,Kanagawa,,722973,1392967248
Sarasota,Sarasota,27.3386,-82.5431,UNITED STATES,US,USA,Florida,,722243,1840015988
Mississauga,Mississauga,43.6000,-79.6500,CANADA,CA,CAN,Ontario,,721599,1124112672
Okayama,Okayama,34.6500,133.9167,JAPAN,JP,JPN,Okayama,admin,720043,1392954750
Dayton,Dayton,39.7797,-84.1998,UNITED STATES,US,USA,Ohio,,718353,1840034249
Enugu,Enugu,6.4403,7.4942,NIGERIA,NG,NGA,Enugu,admin,715774,1566212729
George Town,George Town,5.4145,100.3292,MALAYSIA,MY,MYS,Pulau Pinang,admin,708127,1458236750
Jaboatão,Jaboatao,-8.1803,-35.0014,BRAZIL,BR,BRA,Pernambuco,,702621,1076000699
Santo André,Santo Andre,-23.6572,-46.5333,BRAZIL,BR,BRA,São Paulo,,710210,1076625886
Soledad,Soledad,10.9200,-74.7700,COLOMBIA,CO,COL,Atlántico,minor,698852,1170765625
Tolyatti,Tolyatti,53.5167,49.4167,RUSSIA,RU,RUS,Samarskaya Oblast’,,707408,1643256295
Edogawa,Edogawa,35.6924,139.8757,JAPAN,JP,JPN,Tōkyō,,690457,1392135698
Osasco,Osasco,-23.5328,-46.7919,BRAZIL,BR,BRA,São Paulo,,694844,1076786452
Rochester,Rochester,43.1680,-77.6162,UNITED STATES,US,USA,New York,,703952,1840000373
Fresno,Fresno,36.7831,-119.7941,UNITED STATES,US,USA,California,,703498,1840020319
Banjarmasin,Banjarmasin,-3.3333,114.5833,INDONESIA,ID,IDN,Kalimantan Selatan,admin,692793,1360685223
Uberlândia,Uberlandia,-18.9189,-48.2769,BRAZIL,BR,BRA,Minas Gerais,,699097,1076495001
Grenoble,Grenoble,45.1715,5.7224,FRANCE,FR,FRA,Auvergne-Rhône-Alpes,minor,687985,1250071647
Guadalupe,Guadalupe,25.6775,-100.2597,MEXICO,MX,MEX,Nuevo León,minor,691931,1484002410
Adachi,Adachi,35.7833,139.8000,JAPAN,JP,JPN,Tōkyō,,682326,1392464568
Aracaju,Aracaju,-10.9111,-37.0717,BRAZIL,BR,BRA,Sergipe,admin,685356,1076527830
Bauchi,Bauchi,10.3158,9.8442,NIGERIA,NG,NGA,Bauchi,admin,693700,1566483284
Hamilton,Hamilton,43.2567,-79.8692,CANADA,CA,CAN,Ontario,,693645,1124567288
Łódź,Lodz,51.7769,19.4547,POLAND,PL,POL,Łódzkie,admin,690422,1616832750
São José dos Campos,Sao Jose dos Campos,-23.1789,-45.8869,BRAZIL,BR,BRA,São Paulo,,688597,1076783887
Acapulco de Juárez,Acapulco de Juarez,16.8636,-99.8825,MEXICO,MX,MEX,Guerrero,minor,687608,1484463183
Sheffield,Sheffield,53.3833,-1.4667,UNITED KINGDOM,GB,GBR,Sheffield,,685368,1826289852
Shizuoka,Shizuoka,34.9756,138.3825,JAPAN,JP,JPN,Shizuoka,admin,685589,1392235505
City of Parañaque,City of Paranaque,14.4667,121.0167,PHILIPPINES,PH,PHL,Parañaque,admin,665822,1608379532
Allentown,Allentown,40.5961,-75.4756,UNITED STATES,US,USA,Pennsylvania,,683794,1840001044
Tasikmalaya,Tasikmalaya,-7.3333,108.2000,INDONESIA,ID,IDN,Jawa Barat,,678027,1360027771
Macau,Macau,22.2030,113.5450,MACAU,MO,MAC,,,568700,1446227359
Torreón,Torreon,25.5394,-103.4486,MEXICO,MX,MEX,Coahuila de Zaragoza,minor,679288,1484215762
Gold Coast,Gold Coast,-28.0167,153.4000,AUSTRALIA,AU,AUS,Queensland,,679127,1036153217
Cagayan de Oro,Cagayan de Oro,8.4833,124.6500,PHILIPPINES,PH,PHL,Cagayan de Oro,admin,675950,1608831546
Palermo,Palermo,38.1157,13.3613,ITALY,IT,ITA,Sicilia,admin,668405,1380428434
Tulsa,Tulsa,36.1284,-95.9042,UNITED STATES,US,USA,Oklahoma,,671033,1840021672
Cape Coral,Cape Coral,26.6446,-81.9956,UNITED STATES,US,USA,Florida,,668382,1840015130
Ribeirão Prêto,Ribeirao Preto,-21.1783,-47.8067,BRAZIL,BR,BRA,São Paulo,,666323,1076524478
Dasmariñas,Dasmarinas,14.3294,120.9367,PHILIPPINES,PH,PHL,Cavite,,659019,1608418544
Durango,Durango,24.0167,-104.6667,MEXICO,MX,MEX,Durango,admin,654876,1484854616
Concord,Concord,37.9722,-122.0016,UNITED STATES,US,USA,California,,652308,1840018905
Contagem,Contagem,-19.9319,-44.0539,BRAZIL,BR,BRA,Minas Gerais,,648766,1076845191
Zaragoza,Zaragoza,41.6483,-0.8830,SPAIN,ES,ESP,Aragon,admin,649404,1724907391
Düsseldorf,Dusseldorf,51.2311,6.7724,GERMANY,DE,DEU,North Rhine-Westphalia,admin,645923,1276615258
Izhevsk,Izhevsk,56.8500,53.2167,RUSSIA,RU,RUS,Udmurtiya,admin,646277,1643983138
Sorocaba,Sorocaba,-23.5019,-47.4578,BRAZIL,BR,BRA,São Paulo,,644919,1076758708
Villahermosa,Villahermosa,17.9892,-92.9281,MEXICO,MX,MEX,Tabasco,admin,640359,1484460894
Petaling Jaya,Petaling Jaya,3.1073,101.6067,MALAYSIA,MY,MYS,Selangor,,638516,1458989343
Utrecht,Utrecht,52.0908,5.1222,NETHERLANDS,NL,NLD,Utrecht,admin,640000,1528871692
Colorado Springs,Colorado Springs,38.8674,-104.7606,UNITED STATES,US,USA,Colorado,,642413,1840018825
Valenzuela,Valenzuela,14.7000,120.9833,PHILIPPINES,PH,PHL,Valenzuela,admin,620422,1608492120
Wrocław,Wroclaw,51.1100,17.0325,POLAND,PL,POL,Dolnośląskie,admin,638586,1616108520
Nantes,Nantes,47.2181,-1.5528,FRANCE,FR,FRA,Pays de la Loire,admin,633690,1250091495
Stuttgart,Stuttgart,48.7761,9.1775,GERMANY,DE,DEU,Baden-Württemberg,admin,634830,1276171358
Cochabamba,Cochabamba,-17.3935,-66.1570,BOLIVIA,BO,BOL,Cochabamba,admin,632013,1068793894
Barnaul,Barnaul,53.3567,83.7872,RUSSIA,RU,RUS,Altayskiy Kray,admin,633301,1643318931
Tripoli,Tripoli,34.4333,35.8333,LEBANON,LB,LBN,Liban-Nord,admin,530000,1422886065
Rotterdam,Rotterdam,51.9225,4.4792,NETHERLANDS,NL,NLD,Zuid-Holland,minor,631155,1528892850
Kryvyi Rih,Kryvyi Rih,47.9086,33.3433,UKRAINE,UA,UKR,Dnipropetrovs’ka Oblast’,minor,629695,1804544901
Charleston,Charleston,32.8153,-79.9628,UNITED STATES,US,USA,South Carolina,,628377,1840015163
Chimalhuacán,Chimalhuacan,19.4167,-98.9000,MEXICO,MX,MEX,México,minor,614453,1484504936
Ulyanovsk,Ulyanovsk,54.3167,48.3667,RUSSIA,RU,RUS,Ul’yanovskaya Oblast’,admin,624518,1643668944
Irkutsk,Irkutsk,52.2833,104.3000,RUSSIA,RU,RUS,Irkutskaya Oblast’,admin,623736,1643439037
Bacoor,Bacoor,14.4624,120.9645,PHILIPPINES,PH,PHL,Cavite,,600609,1608869358
Pontianak,Pontianak,-0.0206,109.3414,INDONESIA,ID,IDN,Kalimantan Barat,admin,618388,1360992394
Springfield,Springfield,42.1155,-72.5395,UNITED STATES,US,USA,Massachusetts,,623401,1840000466
Cuiabá,Cuiaba,-15.5958,-56.0969,BRAZIL,BR,BRA,Mato Grosso,admin,618124,1076112309
Feira de Santana,Feira de Santana,-12.2669,-38.9669,BRAZIL,BR,BRA,Bahia,,617528,1076892244
Khabarovsk,Khabarovsk,48.4833,135.0667,RUSSIA,RU,RUS,Khabarovskiy Kray,admin,616242,1643175363
Serang,Serang,-6.1200,106.1503,INDONESIA,ID,IDN,Banten,admin,613356,1360329102
Montpellier,Montpellier,43.6119,3.8772,FRANCE,FR,FRA,Occitanie,minor,607896,1250819356
San Miguel de Tucumán,San Miguel de Tucuman,-26.8167,-65.2167,ARGENTINA,AR,ARG,Tucumán,admin,605767,1032233996
Yaroslavl,Yaroslavl,57.6167,39.8500,RUSSIA,RU,RUS,Yaroslavskaya Oblast’,admin,608079,1643338528
Grand Rapids,Grand Rapids,42.9620,-85.6562,UNITED STATES,US,USA,Michigan,,609314,1840002928
Vladivostok,Vladivostok,43.1167,131.9000,RUSSIA,RU,RUS,Primorskiy Kray,admin,606589,1643832017
Kuantan,Kuantan,3.8167,103.3333,MALAYSIA,MY,MYS,Pahang,admin,607778,1458763489
Gothenburg,Gothenburg,57.6717,11.9810,SWEDEN,SE,SWE,Västra Götaland,admin,604829,1752059374
Jambi,Jambi,-1.5900,103.6100,INDONESIA,ID,IDN,Jambi,admin,602187,1360645580
Las Piñas City,Las Pinas City,14.4500,120.9833,PHILIPPINES,PH,PHL,Las Piñas,,588894,1608544537
Cimahi,Cimahi,-6.8833,107.5333,INDONESIA,ID,IDN,Jawa Barat,,586580,1360181436
Tuxtla,Tuxtla,16.7528,-93.1167,MEXICO,MX,MEX,Chiapas,admin,598710,1484832519
Balikpapan,Balikpapan,-1.1489,116.9031,INDONESIA,ID,IDN,Kalimantan Timur,,598043,1360500922
Joinvile,Joinvile,-26.3039,-48.8458,BRAZIL,BR,BRA,Santa Catarina,,597658,1076050637
Durban,Durban,-29.8583,31.0250,SOUTH AFRICA,ZA,ZAF,KwaZulu-Natal,,595061,1710149138
General Santos,General Santos,6.1167,125.1667,PHILIPPINES,PH,PHL,General Santos,admin,594446,1608171585
Kagoshima,Kagoshima,31.5800,130.5281,JAPAN,JP,JPN,Kagoshima,admin,594258,1392120675
Leipzig,Leipzig,51.3333,12.3833,GERMANY,DE,DEU,Saxony,minor,593197,1276563678
Makhachkala,Makhachkala,42.9833,47.4833,RUSSIA,RU,RUS,Dagestan,admin,592976,1643580480
Mar del Plata,Mar del Plata,-38.0000,-57.5500,ARGENTINA,AR,ARG,Buenos Aires,minor,593337,1032456103
Brampton,Brampton,43.6833,-79.7667,CANADA,CA,CAN,Ontario,,593638,1124625989
Pereira,Pereira,4.8143,-75.6946,COLOMBIA,CO,COL,Risaralda,admin,590554,1170386718
Mission Viejo,Mission Viejo,33.6095,-117.6550,UNITED STATES,US,USA,California,,590249,1840020580
Dortmund,Dortmund,51.5139,7.4653,GERMANY,DE,DEU,North Rhine-Westphalia,minor,587010,1276562886
Makati City,Makati City,14.5500,121.0333,PHILIPPINES,PH,PHL,Makati,admin,582602,1608725647
Albany,Albany,42.6664,-73.7987,UNITED STATES,US,USA,New York,admin,586383,1840000417
Shah Alam,Shah Alam,3.0833,101.5333,MALAYSIA,MY,MYS,Selangor,admin,584340,1458194263
Knoxville,Knoxville,35.9692,-83.9496,UNITED STATES,US,USA,Tennessee,,586048,1840014486
Essen,Essen,51.4508,7.0131,GERMANY,DE,DEU,North Rhine-Westphalia,minor,583109,1276769247
Bucaramanga,Bucaramanga,7.1186,-73.1161,COLOMBIA,CO,COL,Santander,admin,581130,1170940590
Genoa,Genoa,44.4072,8.9340,ITALY,IT,ITA,Liguria,admin,580097,1380716540
Tlaquepaque,Tlaquepaque,20.6167,-103.3167,MEXICO,MX,MEX,Jalisco,minor,575942,1484087945
Puente Alto,Puente Alto,-33.6167,-70.5833,CHILE,CL,CHL,Región Metropolitana,minor,573935,1152516346
Dehra Dūn,Dehra Dun,30.3180,78.0290,INDIA,IN,IND,Uttarakhand,admin,578420,1356970407
San Jose del Monte,San Jose del Monte,14.8139,121.0453,PHILIPPINES,PH,PHL,Bulacan,,574089,1608850554
Bakersfield,Bakersfield,35.3529,-119.0359,UNITED STATES,US,USA,California,,579295,1840019148
Hachiōji,Hachioji,35.6667,139.3167,JAPAN,JP,JPN,Tōkyō,,575721,1392172935
Ogden,Ogden,41.2278,-111.9682,UNITED STATES,US,USA,Utah,,578523,1840020135
Tomsk,Tomsk,56.4886,84.9522,RUSSIA,RU,RUS,Tomskaya Oblast’,admin,572740,1643258928
Kingston upon Hull,Kingston upon Hull,53.7444,-0.3325,UNITED KINGDOM,GB,GBR,"Kingston upon Hull, City of",,573300,1826028894
Baton Rouge,Baton Rouge,30.4418,-91.1310,UNITED STATES,US,USA,Louisiana,admin,570308,1840013941
Orenburg,Orenburg,51.7667,55.1000,RUSSIA,RU,RUS,Orenburgskaya Oblast’,admin,564443,1643685056
Bacolod,Bacolod,10.6765,122.9509,PHILIPPINES,PH,PHL,Bacolod,admin,561875,1608244137
Akron,Akron,41.0798,-81.5219,UNITED STATES,US,USA,Ohio,,565208,1840000791
New Haven,New Haven,41.3112,-72.9246,UNITED STATES,US,USA,Connecticut,,564830,1840004850
Surakarta,Surakarta,-7.5667,110.8167,INDONESIA,ID,IDN,Jawa Tengah,,552118,1360853933
Columbia,Columbia,34.0376,-80.9037,UNITED STATES,US,USA,South Carolina,admin,560041,1840014730
Kemerovo,Kemerovo,55.3333,86.0667,RUSSIA,RU,RUS,Kemerovskaya Oblast’,admin,556920,1643216311
Dresden,Dresden,51.0500,13.7400,GERMANY,DE,DEU,Saxony,admin,556549,1276561036
Veracruz,Veracruz,19.1903,-96.1533,MEXICO,MX,MEX,Veracruz,minor,552156,1484992153
Novokuznetsk,Novokuznetsk,53.7500,87.1167,RUSSIA,RU,RUS,Kemerovskaya Oblast’,,552105,1643628717
Chiclayo,Chiclayo,-6.7630,-79.8366,PERU,PE,PER,Lambayeque,admin,552508,1604799615
Palma,Palma,39.5667,2.6500,SPAIN,ES,ESP,Balearic Islands,admin,550000,1724728111
Londrina,Londrina,-23.3100,-51.1628,BRAZIL,BR,BRA,Paraná,,548249,1076723241
Valledupar,Valledupar,10.4603,-73.2597,COLOMBIA,CO,COL,Cesar,admin,544134,1170481949
Ibagué,Ibague,4.4378,-75.2006,COLOMBIA,CO,COL,Tolima,admin,541101,1170245063
Hannover,Hannover,52.3744,9.7386,GERMANY,DE,DEU,Lower Saxony,admin,538068,1276457707
Ryazan,Ryazan,54.6167,39.7167,RUSSIA,RU,RUS,Ryazanskaya Oblast’,admin,537622,1643205787
Ananindeua,Ananindeua,-1.3658,-48.3719,BRAZIL,BR,BRA,Pará,,535547,1076025295
Poznań,Poznan,52.4000,16.9167,POLAND,PL,POL,Wielkopolskie,admin,533830,1616725607
Salta,Salta,-24.7883,-65.4106,ARGENTINA,AR,ARG,Salta,admin,535303,1032926124
Astrakhan,Astrakhan,46.3333,48.0167,RUSSIA,RU,RUS,Astrakhanskaya Oblast’,admin,532504,1643407929
Naberezhnyye Chelny,Naberezhnyye Chelny,55.7000,52.3333,RUSSIA,RU,RUS,Tatarstan,,529797,1643008493
Agartala,Agartala,23.8333,91.2667,INDIA,IN,IND,Tripura,admin,522613,1356148992
Xalapa,Xalapa,19.5400,-96.9275,MEXICO,MX,MEX,Veracruz,admin,525147,1484334948
Villavicencio,Villavicencio,4.1425,-73.6294,COLOMBIA,CO,COL,Meta,admin,527668,1170426927
Ensenada,Ensenada,31.8578,-116.6058,MEXICO,MX,MEX,Baja California,minor,522768,1484714297
Lyon,Lyon,45.7600,4.8400,FRANCE,FR,FRA,Auvergne-Rhône-Alpes,admin,516092,1250196189
Bắc Ninh,Bac Ninh,21.1861,106.0763,VIETNAM,VN,VNM,Bắc Ninh,admin,520000,1704025181
Ciudad Apodaca,Ciudad Apodaca,25.7833,-100.1833,MEXICO,MX,MEX,Nuevo León,minor,523370,1484855080
Maipú,Maipu,-33.5167,-70.7667,CHILE,CL,CHL,Región Metropolitana,,521627,1152583016
Penza,Penza,53.2000,45.0000,RUSSIA,RU,RUS,Penzenskaya Oblast’,admin,523726,1643492830
Heroica Matamoros,Heroica Matamoros,25.8797,-97.5042,MEXICO,MX,MEX,Tamaulipas,minor,520367,1484614906
Nuremberg,Nuremberg,49.4539,11.0775,GERMANY,DE,DEU,Bavaria,minor,518365,1276166609
Utsunomiya,Utsunomiya,36.5500,139.8833,JAPAN,JP,JPN,Tochigi,admin,518197,1392506125
Mesa,Mesa,33.4017,-111.7180,UNITED STATES,US,USA,Arizona,,518012,1840020566
Surrey,Surrey,49.1900,-122.8489,CANADA,CA,CAN,British Columbia,,517887,1124001454
Caxias do Sul,Caxias do Sul,-29.1678,-51.1789,BRAZIL,BR,BRA,Rio Grande do Sul,,517451,1076809957
Cuautitlán Izcalli,Cuautitlan Izcalli,19.6500,-99.2500,MEXICO,MX,MEX,México,minor,511675,1484282338
Santa Marta,Santa Marta,11.2361,-74.2017,COLOMBIA,CO,COL,Magdalena,admin,515556,1170715594
Hải Dương,Hai Duong,20.9399,106.3309,VIETNAM,VN,VNM,Hải Dương,admin,507469,1704909566
Leicester,Leicester,52.6333,-1.1333,UNITED KINGDOM,GB,GBR,Leicester,,508916,1826431946
Lipetsk,Lipetsk,52.6167,39.6000,RUSSIA,RU,RUS,Lipetskaya Oblast’,admin,510439,1643772906
Muntinlupa City,Muntinlupa City,14.3833,121.0500,PHILIPPINES,PH,PHL,Muntinlupa,admin,504509,1608473406
Matsuyama,Matsuyama,33.8333,132.7667,JAPAN,JP,JPN,Ehime,admin,506743,1392220893
Aba,Aba,5.1167,7.3667,NIGERIA,NG,NGA,Abia,minor,500183,1566262000
Palm Bay,Palm Bay,27.9550,-80.6627,UNITED STATES,US,USA,Florida,,507002,1840015094
Pingtung,Pingtung,22.6761,120.4942,TAIWAN,TW,TWN,Pingtung,admin,503530,1158209038
Montería,Monteria,8.7600,-75.8856,COLOMBIA,CO,COL,Córdoba,admin,505334,1170855299
Mazatlán,Mazatlan,23.2200,-106.4200,MEXICO,MX,MEX,Sinaloa,minor,502547,1484841466
Murcia,Murcia,37.9861,-1.1303,SPAIN,ES,ESP,Murcia,admin,502000,1724107739
Ile-Ife,Ile-Ife,7.4667,4.5667,NIGERIA,NG,NGA,Osun,minor,501952,1566756897
Kirov,Kirov,58.6000,49.6500,RUSSIA,RU,RUS,Kirovskaya Oblast’,admin,501468,1643106064
Mazatán,Mazatan,29.0167,-110.1333,MEXICO,MX,MEX,Sonora,minor,500000,1484350756
Duisburg,Duisburg,51.4322,6.7611,GERMANY,DE,DEU,North Rhine-Westphalia,minor,498590,1276977172
Mykolaiv,Mykolaiv,46.9667,32.0000,UKRAINE,UA,UKR,Mykolayivs’ka Oblast’,admin,498748,1804398395
Provo,Provo,40.2457,-111.6457,UNITED STATES,US,USA,Utah,,500617,1840020174
Niterói,Niteroi,-22.8833,-43.1036,BRAZIL,BR,BRA,Rio de Janeiro,,496696,1076501425
Matsudo,Matsudo,35.7878,139.9031,JAPAN,JP,JPN,Chiba,,492367,1392642525
Rouen,Rouen,49.4428,1.0886,FRANCE,FR,FRA,Normandie,admin,494382,1250372069
Higashi-ōsaka,Higashi-osaka,34.6794,135.6008,JAPAN,JP,JPN,Ōsaka,,490819,1392117396
Worcester,Worcester,42.2705,-71.8079,UNITED STATES,US,USA,Massachusetts,,498328,1840000434
Chimbote,Chimbote,-9.0745,-78.5936,PERU,PE,PER,Ancash,,497875,1604199858
Ixtapaluca,Ixtapaluca,19.3186,-98.8822,MEXICO,MX,MEX,México,minor,495563,1484452937
Murrieta,Murrieta,33.5720,-117.1909,UNITED STATES,US,USA,California,,496046,1840020553
Kota Bharu,Kota Bharu,6.1333,102.2500,MALAYSIA,MY,MYS,Kelantan,admin,491237,1458150101
Ciudad López Mateos,Ciudad Lopez Mateos,19.5500,-99.2833,MEXICO,MX,MEX,México,minor,489937,1484363879
Vinh,Vinh,18.6733,105.6922,VIETNAM,VN,VNM,Nghệ An,admin,490000,1704960059
Tultitlán de Mariano Escobedo,Tultitlan de Mariano Escobedo,19.6450,-99.1694,MEXICO,MX,MEX,México,minor,486998,1484562374
Nishinomiya-hama,Nishinomiya-hama,34.7333,135.3333,JAPAN,JP,JPN,Hyōgo,,487010,1392114116
Cheboksary,Cheboksary,56.1333,47.2500,RUSSIA,RU,RUS,Chuvashiya,admin,489498,1643163382
Edinburgh,Edinburgh,55.9530,-3.1890,UNITED KINGDOM,GB,GBR,"Edinburgh, City of",,488050,1826492520
Tula,Tula,54.2000,37.6167,RUSSIA,RU,RUS,Tul’skaya Oblast’,admin,485221,1643255206
Serra,Serra,-20.1289,-40.3078,BRAZIL,BR,BRA,Espírito Santo,,485376,1076191325
Greenville,Greenville,34.8353,-82.3647,UNITED STATES,US,USA,South Carolina,,484465,1840013501
San Nicolás de los Garza,San Nicolas de los Garza,25.7500,-100.2833,MEXICO,MX,MEX,Nuevo León,minor,476761,1484264138
Juiz de Fora,Juiz de Fora,-21.7642,-43.3503,BRAZIL,BR,BRA,Minas Gerais,,470193,1076006144
Brookhaven,Brookhaven,40.8321,-72.9518,UNITED STATES,US,USA,New York,,483546,1840057464
Az Zarqā’,Az Zarqa',32.0833,36.1000,JORDAN,JO,JOR,Az Zarqā’,admin,481300,1400161837
Americana,Americana,-22.7392,-47.3314,BRAZIL,BR,BRA,São Paulo,,479472,1076922153
Sylhet,Sylhet,24.9000,91.8667,BANGLADESH,BD,BGD,Sylhet,admin,479837,1050646703
Wichita,Wichita,37.6896,-97.3442,UNITED STATES,US,USA,Kansas,,482249,1840001686
Toledo,Toledo,41.6639,-83.5822,UNITED STATES,US,USA,Ohio,,482111,1840000572
Caerdydd,Caerdydd,51.4833,-3.1833,UNITED KINGDOM,GB,GBR,Cardiff,,479000,1826362422
Florianópolis,Florianopolis,-27.5933,-48.5530,BRAZIL,BR,BRA,Santa Catarina,admin,477798,1076190259
Ōita,Oita,33.2333,131.6067,JAPAN,JP,JPN,Ōita,admin,477186,1392081193
Kaliningrad,Kaliningrad,54.7167,20.5000,RUSSIA,RU,RUS,Kaliningradskaya Oblast’,admin,475056,1643178106
Staten Island,Staten Island,40.5834,-74.1496,UNITED STATES,US,USA,New York,,476143,1840034032
San Juan,San Juan,-31.5375,-68.5364,ARGENTINA,AR,ARG,San Juan,admin,471389,1032869625
Vila Velha,Vila Velha,-20.3364,-40.2936,BRAZIL,BR,BRA,Espírito Santo,,472762,1076404077
Macapá,Macapa,0.0330,-51.0653,BRAZIL,BR,BRA,Amapá,admin,474706,1076189884
Des Moines,Des Moines,41.5725,-93.6105,UNITED STATES,US,USA,Iowa,admin,473957,1840007069
Piura,Piura,-5.2008,-80.6253,PERU,PE,PER,Piura,admin,473025,1604331641
Celaya,Celaya,20.5222,-100.8122,MEXICO,MX,MEX,Guanajuato,minor,468469,1484979555
Strasbourg,Strasbourg,48.5833,7.7458,FRANCE,FR,FRA,Grand Est,admin,465069,1250789140
Lanús,Lanus,-34.7000,-58.4000,ARGENTINA,AR,ARG,Buenos Aires,minor,459263,1032009573
Tamale,Tamale,9.4075,-0.8533,GHANA,GH,GHA,Northern,admin,466723,1288890688
Gdańsk,Gdansk,54.3667,18.6333,POLAND,PL,POL,Pomorskie,admin,464254,1616406372
Manado,Manado,1.4931,124.8413,INDONESIA,ID,IDN,Sulawesi Utara,admin,461636,1360771278
Kanazawa,Kanazawa,36.6000,136.6167,JAPAN,JP,JPN,Ishikawa,admin,462479,1392684679
Calabar,Calabar,4.9500,8.3250,NIGERIA,NG,NGA,Cross River,admin,461796,1566495489
Long Beach,Long Beach,33.7981,-118.1675,UNITED STATES,US,USA,California,,462628,1840020490
Malatya,Malatya,38.3554,38.3337,TURKEY,TR,TUR,Malatya,admin,461574,1792485155
Huế,Hue,16.4637,107.5908,VIETNAM,VN,VNM,Thừa Thiên-Huế,admin,455230,1704016023
Cranbourne,Cranbourne,-38.0996,145.2834,AUSTRALIA,AU,AUS,Victoria,,460491,1036685862
Port St. Lucie,Port St. Lucie,27.2796,-80.3883,UNITED STATES,US,USA,Florida,,461152,1840015119
Mauá,Maua,-23.6678,-46.4608,BRAZIL,BR,BRA,São Paulo,,453286,1076477498
Fukuyama,Fukuyama,34.4858,133.3625,JAPAN,JP,JPN,Hiroshima,,459576,1392551602
Tel Aviv-Yafo,Tel Aviv-Yafo,32.0800,34.7800,ISRAEL,IL,ISR,Tel Aviv,admin,451523,1376401542
Marikina City,Marikina City,14.6500,121.1000,PHILIPPINES,PH,PHL,Marikina,admin,450741,1608000077
City of Calamba,City of Calamba,14.2167,121.1667,PHILIPPINES,PH,PHL,Laguna,,454486,1608985581
Denton,Denton,33.2176,-97.1419,UNITED STATES,US,USA,Texas,,457177,1840019390
Melaka,Melaka,2.1889,102.2511,MALAYSIA,MY,MYS,Melaka,admin,455300,1458467506
Taoyuan District,Taoyuan District,24.9889,121.3111,TAIWAN,TW,TWN,Taoyuan,admin,443273,1158127875
Iloilo,Iloilo,10.7167,122.5667,PHILIPPINES,PH,PHL,Iloilo,admin,447992,1608875987
Kota Kinabalu,Kota Kinabalu,5.9750,116.0725,MALAYSIA,MY,MYS,Sabah,admin,452058,1458441859
Rājshāhi,Rajshahi,24.3667,88.6000,BANGLADESH,BD,BGD,Rājshāhi,admin,448087,1050547831
Balashikha,Balashikha,55.8000,37.9500,RUSSIA,RU,RUS,Moskovskaya Oblast’,,450771,1643989845
Kursk,Kursk,51.7372,36.1872,RUSSIA,RU,RUS,Kurskaya Oblast’,admin,449063,1643011077
Mariupol,Mariupol,47.1306,37.5639,UKRAINE,UA,UKR,Donets’ka Oblast’,,449498,1804630021
Hsinchu,Hsinchu,24.8047,120.9714,TAIWAN,TW,TWN,Hsinchu,admin,445635,1158276420
Ado-Ekiti,Ado-Ekiti,7.6167,5.2167,NIGERIA,NG,NGA,Ekiti,admin,446749,1566196391
Batman,Batman,37.8833,41.1333,TURKEY,TR,TUR,Batman,admin,447106,1792630786
Pasay City,Pasay City,14.5500,121.0000,PHILIPPINES,PH,PHL,Pasay,admin,416522,1608448280
Madison,Madison,43.0826,-89.3931,UNITED STATES,US,USA,Wisconsin,admin,447245,1840002915
Betim,Betim,-19.9678,-44.1978,BRAZIL,BR,BRA,Minas Gerais,,444784,1076953384
Reno,Reno,39.5497,-119.8483,UNITED STATES,US,USA,Nevada,,445020,1840020121
Kahramanmaraş,Kahramanmaras,37.5875,36.9453,TURKEY,TR,TUR,Kahramanmaraş,admin,443575,1792726797
São José do Rio Prêto,Sao Jose do Rio Preto,-20.8200,-49.3789,BRAZIL,BR,BRA,São Paulo,,442548,1076760827
Harrisburg,Harrisburg,40.2752,-76.8843,UNITED STATES,US,USA,Pennsylvania,admin,442289,1840001288
Nancy,Nancy,48.6936,6.1846,FRANCE,FR,FRA,Grand Est,minor,434565,1250925250
Machida,Machida,35.5486,139.4467,JAPAN,JP,JPN,Tōkyō,,434414,1392788615
Little Rock,Little Rock,34.7256,-92.3576,UNITED STATES,US,USA,Arkansas,admin,439815,1840015509
Zürich,Zurich,47.3786,8.5400,SWITZERLAND,CH,CHE,Zürich,admin,434008,1756539143
Diadema,Diadema,-23.6858,-46.6228,BRAZIL,BR,BRA,São Paulo,,412428,1076867279
Kupang,Kupang,-10.1633,123.5778,INDONESIA,ID,IDN,Nusa Tenggara Timur,admin,433970,1360696757
Santos,Santos,-23.9608,-46.3339,BRAZIL,BR,BRA,São Paulo,,433966,1076033299
Manizales,Manizales,5.0661,-75.4847,COLOMBIA,CO,COL,Caldas,admin,434403,1170930654
Stavropol,Stavropol,45.0500,41.9833,RUSSIA,RU,RUS,Stavropol’skiy Kray,admin,433577,1643947228
Katsina,Katsina,12.9889,7.6008,NIGERIA,NG,NGA,Katsina,admin,432149,1566777297
Yogyakarta,Yogyakarta,-7.8014,110.3644,INDONESIA,ID,IDN,Yogyakarta,admin,422732,1360384833
Calicut,Calicut,11.2500,75.7667,INDIA,IN,IND,Kerala,minor,431560,1356010401
Welkom,Welkom,-27.9831,26.7208,SOUTH AFRICA,ZA,ZAF,Free State,,431944,1710480365
Ulan-Ude,Ulan-Ude,51.8272,107.6064,RUSSIA,RU,RUS,Buryatiya,admin,431922,1643774900
Oakland,Oakland,37.7903,-122.2165,UNITED STATES,US,USA,California,,433031,1840020296
Uyo,Uyo,5.0500,7.9333,NIGERIA,NG,NGA,Akwa Ibom,admin,429900,1566061694
Maringá,Maringa,-23.4250,-51.9389,BRAZIL,BR,BRA,Paraná,,430157,1076013378
Cusco,Cusco,-13.5183,-71.9781,PERU,PE,PER,Cusco,admin,428450,1604162901
Sevastopol,Sevastopol,44.6000,33.5333,UKRAINE,UA,UKR,"Sevastopol’, Misto",admin,428753,1804806030
Mandaluyong City,Mandaluyong City,14.5833,121.0333,PHILIPPINES,PH,PHL,Mandaluyong,admin,386276,1608166320
Porto Velho,Porto Velho,-8.7619,-63.9039,BRAZIL,BR,BRA,Rondônia,admin,428527,1076045591
Florencio Varela,Florencio Varela,-34.8167,-58.2833,ARGENTINA,AR,ARG,Buenos Aires,,426005,1032730758
Mogi das Cruzes,Mogi das Cruzes,-23.5228,-46.1931,BRAZIL,BR,BRA,São Paulo,,424633,1076857883
Durham,Durham,35.9794,-78.9031,UNITED STATES,US,USA,North Carolina,,424700,1840013364
Buenaventura,Buenaventura,3.8772,-77.0267,COLOMBIA,CO,COL,Valle del Cauca,minor,423927,1170287988
Laval,Laval,45.5833,-73.7500,CANADA,CA,CAN,Quebec,,422993,1124922301
Toyota,Toyota,35.0833,137.1567,JAPAN,JP,JPN,Aichi,,422106,1392498272
Winston-Salem,Winston-Salem,36.1029,-80.2611,UNITED STATES,US,USA,North Carolina,,422269,1840015324
Tver,Tver,56.8578,35.9219,RUSSIA,RU,RUS,Tverskaya Oblast’,admin,419363,1643456559
Elazığ,Elazig,38.6667,39.2167,TURKEY,TR,TUR,Elazığ,admin,421726,1792156766
Akure,Akure,7.2500,5.1950,NIGERIA,NG,NGA,Ondo,admin,420594,1566568277
Bonita Springs,Bonita Springs,26.3559,-81.7861,UNITED STATES,US,USA,Florida,,421291,1840014227
Seremban,Seremban,2.7297,101.9381,MALAYSIA,MY,MYS,Negeri Sembilan,admin,419536,1458051507
Luhansk,Luhansk,48.5833,39.3333,UKRAINE,UA,UKR,Luhans’ka Oblast’,admin,417990,1804688214
Magnitogorsk,Magnitogorsk,53.3833,59.0333,RUSSIA,RU,RUS,Chelyabinskaya Oblast’,,418241,1643987830
Takamatsu,Takamatsu,34.3500,134.0500,JAPAN,JP,JPN,Kagawa,admin,417814,1392427161
Angeles City,Angeles City,15.1472,120.5847,PHILIPPINES,PH,PHL,Angeles,admin,411634,1608036027
Indio,Indio,33.7346,-116.2346,UNITED STATES,US,USA,California,,417059,1840019304
Palm Coast,Palm Coast,29.5392,-81.2460,UNITED STATES,US,USA,Florida,,417007,1840015064
Mataram,Mataram,-8.5833,116.1167,INDONESIA,ID,IDN,Nusa Tenggara Barat,admin,408900,1360021952
Chattanooga,Chattanooga,35.0657,-85.2488,UNITED STATES,US,USA,Tennessee,,415501,1840014569
Lapu-Lapu City,Lapu-Lapu City,10.3127,123.9488,PHILIPPINES,PH,PHL,Lapu-Lapu,admin,408112,1608430676
Kisumu,Kisumu,-0.1000,34.7500,KENYA,KE,KEN,Kisumu,admin,409928,1404511920
Jayapura,Jayapura,-2.5333,140.7167,INDONESIA,ID,IDN,Papua,admin,413283,1360517692
Montes Claros,Montes Claros,-16.7322,-43.8636,BRAZIL,BR,BRA,Minas Gerais,,413487,1076113275
Rio Branco,Rio Branco,-9.9781,-67.8117,BRAZIL,BR,BRA,Acre,admin,413418,1076391263
Toyama,Toyama,36.7000,137.2200,JAPAN,JP,JPN,Toyama,admin,413028,1392000560
Spokane,Spokane,47.6671,-117.4330,UNITED STATES,US,USA,Washington,,412275,1840021093
Sochi,Sochi,43.5853,39.7203,RUSSIA,RU,RUS,Krasnodarskiy Kray,,411524,1643009782
Ivanovo,Ivanovo,57.0000,41.0000,RUSSIA,RU,RUS,Ivanovskaya Oblast’,admin,406933,1643297945
Osogbo,Osogbo,7.7667,4.5667,NIGERIA,NG,NGA,Osun,admin,408245,1566395088
Imus,Imus,14.4297,120.9367,PHILIPPINES,PH,PHL,Cavite,,403785,1608802508
Ciudad Obregón,Ciudad Obregon,27.4939,-109.9389,MEXICO,MX,MEX,Sonora,minor,405000,1484887986
Zaria,Zaria,11.0667,7.7000,NIGERIA,NG,NGA,Kaduna,minor,408198,1566287704
Bryansk,Bryansk,53.2500,34.3667,RUSSIA,RU,RUS,Bryanskaya Oblast’,admin,406553,1643208827
Mbale,Mbale,1.0806,34.1750,UGANDA,UG,UGA,Mbale,admin,402368,1800265900
Santa Fe,Santa Fe,-31.6333,-60.7000,ARGENTINA,AR,ARG,Santa Fe,admin,405683,1032817575
Campina Grande,Campina Grande,-7.2306,-35.8811,BRAZIL,BR,BRA,Paraíba,,405072,1076218697
Nagasaki,Nagasaki,32.7833,129.8667,JAPAN,JP,JPN,Nagasaki,admin,404656,1392162566
Szczecin,Szczecin,53.4247,14.5553,POLAND,PL,POL,Zachodniopomorskie,admin,403833,1616256546
Syracuse,Syracuse,43.0409,-76.1438,UNITED STATES,US,USA,New York,,404223,1840000378
Carapicuíba,Carapicuiba,-23.5228,-46.8358,BRAZIL,BR,BRA,São Paulo,,392294,1076874103
Jundiaí,Jundiai,-23.1864,-46.8842,BRAZIL,BR,BRA,São Paulo,,401896,1076998392
Gifu,Gifu,35.4167,136.7667,JAPAN,JP,JPN,Gifu,admin,400118,1392097787
Lancaster,Lancaster,40.0421,-76.3012,UNITED STATES,US,USA,Pennsylvania,,401524,1840003718
Eindhoven,Eindhoven,51.4408,5.4778,NETHERLANDS,NL,NLD,Noord-Brabant,minor,398053,1528636212
Arlington,Arlington,32.6998,-97.1250,UNITED STATES,US,USA,Texas,,398854,1840019422
Miyazaki,Miyazaki,31.9167,131.4167,JAPAN,JP,JPN,Miyazaki,admin,397476,1392216224
Stockton,Stockton,37.9765,-121.3109,UNITED STATES,US,USA,California,,397264,1840021517
Sandakan,Sandakan,5.8388,118.1173,MALAYSIA,MY,MYS,Sabah,,396290,1458405180
Thanh Hóa,Thanh Hoa,19.8075,105.7764,VIETNAM,VN,VNM,Thanh Hóa,admin,393294,1704016079
Poughkeepsie,Poughkeepsie,41.6949,-73.9210,UNITED STATES,US,USA,New York,,394760,1840000500
Campos,Campos,-21.7523,-41.3304,BRAZIL,BR,BRA,Rio de Janeiro,,387417,1076606365
Metz,Metz,49.1203,6.1778,FRANCE,FR,FRA,Grand Est,minor,391187,1250778717
Nha Trang,Nha Trang,12.2495,109.1908,VIETNAM,VN,VNM,Khánh Hòa,admin,392279,1704497901
Belgorod,Belgorod,50.6000,36.6000,RUSSIA,RU,RUS,Belgorodskaya Oblast’,admin,391135,1643407900
Yola,Yola,9.2000,12.4833,NIGERIA,NG,NGA,Adamawa,admin,392854,1566782065
Olinda,Olinda,-8.0089,-34.8550,BRAZIL,BR,BRA,Pernambuco,,389494,1076784718
Bologna,Bologna,44.4939,11.3428,ITALY,IT,ITA,Emilia-Romagna,admin,389261,1380202039
Augusta,Augusta,33.3645,-82.0708,UNITED STATES,US,USA,Georgia,,390809,1840029462
Cilegon,Cilegon,-6.0027,106.0112,INDONESIA,ID,IDN,Banten,,387543,1360643410
Boise,Boise,43.6007,-116.2312,UNITED STATES,US,USA,Idaho,admin,389280,1840027142
Tonalá,Tonala,20.6167,-103.2333,MEXICO,MX,MEX,Jalisco,minor,374258,1484750897
Oxnard,Oxnard,34.1963,-119.1815,UNITED STATES,US,USA,California,,387647,1840020474
Okazaki,Okazaki,34.9500,137.1667,JAPAN,JP,JPN,Aichi,,385376,1392862345
Cariacica,Cariacica,-20.2639,-40.4200,BRAZIL,BR,BRA,Espírito Santo,,383917,1076479479
Las Palmas,Las Palmas,28.1272,-15.4314,SPAIN,ES,ESP,Canary Islands,admin,381223,1724501748
Florence,Florence,43.7714,11.2542,ITALY,IT,ITA,Tuscany,admin,380948,1380726561
Scranton,Scranton,41.4044,-75.6649,UNITED STATES,US,USA,Pennsylvania,,384250,1840003389
London,London,42.9836,-81.2497,CANADA,CA,CAN,Ontario,,383822,1124469960
Modesto,Modesto,37.6374,-121.0028,UNITED STATES,US,USA,California,,383134,1840020287
Kissimmee,Kissimmee,28.3042,-81.4164,UNITED STATES,US,USA,Florida,,382720,1840015109
Pasto,Pasto,1.2136,-77.2811,COLOMBIA,CO,COL,Nariño,admin,382236,1170320545
Ichinomiya,Ichinomiya,35.3039,136.8031,JAPAN,JP,JPN,Aichi,,378681,1392379530
Irapuato,Irapuato,20.6667,-101.3500,MEXICO,MX,MEX,Guanajuato,minor,380941,1484625454
Novi Sad,Novi Sad,45.2644,19.8317,SERBIA,RS,SRB,Novi Sad,admin,380000,1688169087
Huancayo,Huancayo,-12.0667,-75.2167,PERU,PE,PER,Junín,admin,378203,1604249985
Aurora,Aurora,39.7087,-104.7273,UNITED STATES,US,USA,Colorado,,379289,1840018794
Malabon,Malabon,14.6625,120.9567,PHILIPPINES,PH,PHL,Malabon,admin,365525,1608045841
Sintra,Sintra,38.7974,-9.3904,PORTUGAL,PT,PRT,Lisboa,minor,377835,1620848791
Youngstown,Youngstown,41.0993,-80.6463,UNITED STATES,US,USA,Ohio,,378732,1840003563
Christchurch,Christchurch,-43.5309,172.6365,NEW ZEALAND,NZ,NZL,Canterbury,admin,377200,1554377228
Hatay,Hatay,36.2000,36.1500,TURKEY,TR,TUR,Hatay,admin,377793,1792115763
Iquitos,Iquitos,-3.7333,-73.2500,PERU,PE,PER,Loreto,admin,377609,1604493809
Sivas,Sivas,39.7500,37.0167,TURKEY,TR,TUR,Sivas,admin,377561,1792938326
A Coruña,A Coruna,43.3713,-8.4188,SPAIN,ES,ESP,Galicia,minor,370610,1724417375
Manukau City,Manukau City,-37.0000,174.8850,NEW ZEALAND,NZ,NZL,Auckland,,375600,1554797148
Stoke-on-Trent,Stoke-on-Trent,53.0000,-2.1833,UNITED KINGDOM,GB,GBR,Stoke-on-Trent,,372775,1826799578
Vinnytsia,Vinnytsia,49.2372,28.4672,UKRAINE,UA,UKR,Vinnyts’ka Oblast’,admin,371855,1804658571
Bello,Bello,6.3319,-75.5581,COLOMBIA,CO,COL,Antioquia,minor,371591,1170423489
Nuevo Laredo,Nuevo Laredo,27.4861,-99.5069,MEXICO,MX,MEX,Tamaulipas,minor,373725,1484597234
Ambon,Ambon,-3.7050,128.1700,INDONESIA,ID,IDN,Maluku,admin,372249,1360756802
Mandaue City,Mandaue City,10.3333,123.9333,PHILIPPINES,PH,PHL,Mandaue,admin,362654,1608794590
Keelung,Keelung,25.1283,121.7419,TAIWAN,TW,TWN,Keelung,admin,370155,1158820647
Toyohashi,Toyohashi,34.7667,137.3833,JAPAN,JP,JPN,Aichi,,371507,1392482960
La Florida,La Florida,-33.5500,-70.5667,CHILE,CL,CHL,Región Metropolitana,,366916,1152939649
Varna,Varna,43.2114,27.9111,BULGARIA,BG,BGR,Varna,admin,369162,1100789115
Rodriguez,Rodriguez,14.7167,121.1167,PHILIPPINES,PH,PHL,Rizal,,369222,1608543530
Cuernavaca,Cuernavaca,18.9186,-99.2342,MEXICO,MX,MEX,Morelos,admin,366321,1484926471
Nicolás Romero,Nicolas Romero,19.5833,-99.3667,MEXICO,MX,MEX,México,minor,366602,1484589606
Nagano,Nagano,36.6486,138.1928,JAPAN,JP,JPN,Nagano,admin,367184,1392603439
Bauru,Bauru,-22.3147,-49.0606,BRAZIL,BR,BRA,São Paulo,,366992,1076905338
Bochum,Bochum,51.4833,7.2167,GERMANY,DE,DEU,North Rhine-Westphalia,minor,364628,1276227288
Anápolis,Anapolis,-16.3269,-48.9528,BRAZIL,BR,BRA,Goiás,,366491,1076208869
Coventry,Coventry,52.4081,-1.5106,UNITED KINGDOM,GB,GBR,Coventry,,362690,1826979198
Tecámac,Tecamac,19.7131,-98.9683,MEXICO,MX,MEX,México,minor,364579,1484363321
Ciudad General Escobedo,Ciudad General Escobedo,25.7933,-100.1583,MEXICO,MX,MEX,Nuevo León,minor,363436,1484345554
Kocaeli,Kocaeli,40.7656,29.9406,TURKEY,TR,TUR,Kocaeli,admin,363416,1792965114
Bengkulu,Bengkulu,-3.7956,102.2592,INDONESIA,ID,IDN,Bengkulu,admin,360495,1360191448
Surgut,Surgut,61.2500,73.4333,RUSSIA,RU,RUS,Khanty-Mansiyskiy Avtonomnyy Okrug-Yugra,,360590,1643007475
Umuahia,Umuahia,5.5333,7.4833,NIGERIA,NG,NGA,Abia,admin,359230,1566217980
Palu,Palu,-0.8950,119.8594,INDONESIA,ID,IDN,Sulawesi Tengah,admin,359350,1360518272
Santa Rosa,Santa Rosa,14.3167,121.1167,PHILIPPINES,PH,PHL,Laguna,,353767,1608571683
Sungai Petani,Sungai Petani,5.6500,100.4800,MALAYSIA,MY,MYS,Kedah,,358499,1458639918
Nam Định,Nam Dinh,20.4200,106.1683,VIETNAM,VN,VNM,Nam Định,admin,352108,1704906277
Vitória,Vitoria,-20.3189,-40.3378,BRAZIL,BR,BRA,Espírito Santo,admin,355875,1076376829
Vladimir,Vladimir,56.1286,40.4058,RUSSIA,RU,RUS,Vladimirskaya Oblast’,admin,356168,1643712167
Bilbao,Bilbao,43.2569,-2.9236,SPAIN,ES,ESP,Basque Country,minor,350184,1724331267
São Vicente,Sao Vicente,-23.9633,-46.3922,BRAZIL,BR,BRA,São Paulo,,355542,1076857089
Itaquaquecetuba,Itaquaquecetuba,-23.4864,-46.3486,BRAZIL,BR,BRA,São Paulo,,352801,1076942224
Wuppertal,Wuppertal,51.2667,7.1833,GERMANY,DE,DEU,North Rhine-Westphalia,minor,354382,1276004611
Minatitlán,Minatitlan,17.9833,-94.5500,MEXICO,MX,MEX,Veracruz,minor,356020,1484735713
Nizhniy Tagil,Nizhniy Tagil,57.9167,59.9667,RUSSIA,RU,RUS,Sverdlovskaya Oblast’,,355693,1643992310
Ponta Grossa,Ponta Grossa,-25.0950,-50.1619,BRAZIL,BR,BRA,Paraná,,355336,1076716439
Wakayama,Wakayama,34.2333,135.1667,JAPAN,JP,JPN,Wakayama,admin,353299,1392907296
Nara,Nara,34.6833,135.7833,JAPAN,JP,JPN,Nara,admin,352377,1392520831
Van,Van,38.5019,43.4167,TURKEY,TR,TUR,Van,admin,353419,1792940471
Corrientes,Corrientes,-27.4833,-58.8167,ARGENTINA,AR,ARG,Corrientes,admin,352646,1032173097
San Pedro,San Pedro,14.3583,121.0583,PHILIPPINES,PH,PHL,Laguna,,325809,1608848483
Neiva,Neiva,2.9275,-75.2875,COLOMBIA,CO,COL,Huila,admin,353033,1170159963
Arkhangelsk,Arkhangelsk,64.5500,40.5333,RUSSIA,RU,RUS,Arkhangel’skaya Oblast’,admin,351488,1643797198
Koshigaya,Koshigaya,35.8911,139.7908,JAPAN,JP,JPN,Saitama,,346768,1392606124
Baguio City,Baguio City,16.4152,120.5956,PHILIPPINES,PH,PHL,Baguio,admin,345366,1608164766
Fayetteville,Fayetteville,36.0713,-94.1660,UNITED STATES,US,USA,Arkansas,,351246,1840013368
Canoas,Canoas,-29.9200,-51.1800,BRAZIL,BR,BRA,Rio Grande do Sul,,348208,1076009922
Anaheim,Anaheim,33.8390,-117.8572,UNITED STATES,US,USA,California,,350365,1840019322
Piracicaba,Piracicaba,-22.7250,-47.6489,BRAZIL,BR,BRA,São Paulo,,342209,1076166252
Bydgoszcz,Bydgoszcz,53.1167,18.0000,POLAND,PL,POL,Kujawsko-Pomorskie,admin,346739,1616454014
Antofagasta,Antofagasta,-23.6464,-70.3980,CHILE,CL,CHL,Antofagasta,admin,348517,1152734289
Chita,Chita,52.0333,113.5000,RUSSIA,RU,RUS,Zabaykal’skiy Kray,admin,347088,1643036673
Caruaru,Caruaru,-8.2828,-35.9758,BRAZIL,BR,BRA,Pernambuco,,347088,1076397475
Makiivka,Makiivka,48.0556,37.9611,UKRAINE,UA,UKR,Donets’ka Oblast’,,347376,1804926154
Pensacola,Pensacola,30.4427,-87.1886,UNITED STATES,US,USA,Florida,,346921,1840015005
Victorville,Victorville,34.5277,-117.3536,UNITED STATES,US,USA,California,,346789,1840021731
Tokorozawa,Tokorozawa,35.7994,139.4689,JAPAN,JP,JPN,Saitama,,341195,1392340764
Simferopol,Simferopol,44.9484,34.1000,UKRAINE,UA,UKR,"Krym, Avtonomna Respublika",admin,341799,1804665958
Plovdiv,Plovdiv,42.1433,24.7489,BULGARIA,BG,BGR,Plovdiv,admin,340494,1100436706
Tarlac City,Tarlac City,15.4802,120.5979,PHILIPPINES,PH,PHL,Tarlac,admin,342493,1608237027
Ōtsu,Otsu,35.0167,135.8500,JAPAN,JP,JPN,Shiga,admin,342607,1392164106
Pelotas,Pelotas,-31.7719,-52.3428,BRAZIL,BR,BRA,Rio Grande do Sul,,343132,1076815692
Lancaster,Lancaster,34.6935,-118.1753,UNITED STATES,US,USA,California,,343304,1840020516
Greensboro,Greensboro,36.0956,-79.8269,UNITED STATES,US,USA,North Carolina,,343090,1840013356
Iligan,Iligan,8.2333,124.2500,PHILIPPINES,PH,PHL,Iligan,admin,342618,1608000268
East London,East London,-33.0153,27.9116,SOUTH AFRICA,ZA,ZAF,Eastern Cape,,338627,1710178149
Franca,Franca,-20.5389,-47.4008,BRAZIL,BR,BRA,São Paulo,,342112,1076740256
Kaluga,Kaluga,54.5333,36.2667,RUSSIA,RU,RUS,Kaluzhskaya Oblast’,admin,341892,1643161747
Corpus Christi,Corpus Christi,27.7260,-97.3755,UNITED STATES,US,USA,Texas,,342464,1840019718
Lublin,Lublin,51.2333,22.5667,POLAND,PL,POL,Lubelskie,admin,339850,1616953501
Kawagoe,Kawagoe,35.9251,139.4858,JAPAN,JP,JPN,Saitama,,337931,1392825080
Tamuramachi-moriyama,Tamuramachi-moriyama,37.3252,140.4134,JAPAN,JP,JPN,Fukushima,,340560,1392675180
Buôn Ma Thuột,Buon Ma Thuot,12.6667,108.0500,VIETNAM,VN,VNM,Đắk Lắk,admin,340000,1704542086
Biñan,Binan,14.3333,121.0833,PHILIPPINES,PH,PHL,Laguna,,333028,1608039268
Tarsus,Tarsus,36.9167,34.9000,TURKEY,TR,TUR,Mersin,minor,339676,1792003860
Alicante,Alicante,38.3453,-0.4831,SPAIN,ES,ESP,Valencia,minor,337482,1724923163
Randburg,Randburg,-26.0936,28.0064,SOUTH AFRICA,ZA,ZAF,Gauteng,,337053,1710279034
Tepic,Tepic,21.5083,-104.8931,MEXICO,MX,MEX,Nayarit,admin,332863,1484433877
Petrolina,Petrolina,-9.3928,-40.5078,BRAZIL,BR,BRA,Pernambuco,,337683,1076843988
Butuan,Butuan,8.9534,125.5288,PHILIPPINES,PH,PHL,Butuan,admin,337063,1608000722
Reading,Reading,51.4542,-0.9731,UNITED KINGDOM,GB,GBR,Reading,,337108,1826869043
Uberaba,Uberaba,-19.7478,-47.9319,BRAZIL,BR,BRA,Minas Gerais,,337092,1076230331
Belfast,Belfast,54.5964,-5.9300,UNITED KINGDOM,GB,GBR,Belfast,,333871,1826325087
Iwaki,Iwaki,37.0333,140.8833,JAPAN,JP,JPN,Fukushima,,336111,1392158088
Viña del Mar,Vina del Mar,-33.0245,-71.5518,CHILE,CL,CHL,Valparaíso,,332875,1152898644
Bielefeld,Bielefeld,52.0167,8.5333,GERMANY,DE,DEU,North Rhine-Westphalia,minor,333786,1276112885
Cuenca,Cuenca,-2.8974,-79.0045,ECUADOR,EC,ECU,Azuay,admin,329928,1218041020
Fort Wayne,Fort Wayne,41.0886,-85.1437,UNITED STATES,US,USA,Indiana,,334122,1840008261
Lipa City,Lipa City,13.9411,121.1622,PHILIPPINES,PH,PHL,Batangas,,332386,1608615113
Ribeirão das Neves,Ribeirao das Neves,-19.7669,-44.0869,BRAZIL,BR,BRA,Minas Gerais,,331045,1076482220
Maebashi,Maebashi,36.3833,139.0667,JAPAN,JP,JPN,Gunma,admin,331576,1392333295
Thessaloníki,Thessaloniki,40.6403,22.9356,GREECE,GR,GRC,Kentrikí Makedonía,admin,315196,1300397999
Santa Ana,Santa Ana,33.7366,-117.8819,UNITED STATES,US,USA,California,,332318,1840021964
Mymensingh,Mymensingh,24.7504,90.3800,BANGLADESH,BD,BGD,Mymensingh,admin,330126,1050399881
Flint,Flint,43.0235,-83.6922,UNITED STATES,US,USA,Michigan,,332190,1840002949
Kendari,Kendari,-3.9675,122.5947,INDONESIA,ID,IDN,Sulawesi Tenggara,admin,331013,1360992102
Balıkesir,Balikesir,39.6511,27.8842,TURKEY,TR,TUR,Balıkesir,admin,331788,1792020804
Thái Nguyên,Thai Nguyen,21.6000,105.8500,VIETNAM,VN,VNM,Thái Nguyên,admin,330000,1704613715
Smolensk,Smolensk,54.7828,32.0453,RUSSIA,RU,RUS,Smolenskaya Oblast’,admin,329853,1643627051
Asahikawa,Asahikawa,43.7706,142.3650,JAPAN,JP,JPN,Hokkaidō,,331392,1392380358
Islip,Islip,40.7384,-73.1887,UNITED STATES,US,USA,New York,,331499,1840058203
Batangas,Batangas,13.7500,121.0500,PHILIPPINES,PH,PHL,Batangas,admin,329874,1608417616
Barishal,Barishal,22.7000,90.3667,BANGLADESH,BD,BGD,Barisāl,admin,328278,1050297281
Cainta,Cainta,14.5667,121.1167,PHILIPPINES,PH,PHL,Rizal,,322128,1608314665
Bonn,Bonn,50.7339,7.0997,GERMANY,DE,DEU,North Rhine-Westphalia,minor,327258,1276807850
São José dos Pinhais,Sao Jose dos Pinhais,-25.5350,-49.2058,BRAZIL,BR,BRA,Paraná,,329058,1076174955
Vũng Tàu,Vung Tau,10.4042,107.1417,VIETNAM,VN,VNM,Bà Rịa-Vũng Tàu,admin,327000,1704581438
Markham,Markham,43.8767,-79.2633,CANADA,CA,CAN,Ontario,,328966,1124272698
Malmö,Malmo,55.5932,13.0214,SWEDEN,SE,SWE,Skåne,admin,324002,1752705818
Roodepoort,Roodepoort,-26.1625,27.8725,SOUTH AFRICA,ZA,ZAF,Gauteng,,326416,1710090212
Gómez Palacio,Gomez Palacio,25.5611,-103.4983,MEXICO,MX,MEX,Durango,minor,327985,1484092318
Volzhskiy,Volzhskiy,48.7833,44.7667,RUSSIA,RU,RUS,Volgogradskaya Oblast’,,326055,1643875527
Sukabumi,Sukabumi,-6.9197,106.9272,INDONESIA,ID,IDN,Jawa Barat,,320970,1360447543
Fayetteville,Fayetteville,35.0846,-78.9776,UNITED STATES,US,USA,North Carolina,,327435,1840013490
Taytay,Taytay,14.5692,121.1325,PHILIPPINES,PH,PHL,Rizal,,319104,1608530771
Nakuru,Nakuru,-0.2833,36.0667,KENYA,KE,KEN,Nakuru,admin,307990,1404140179
Kōchi,Kochi,33.5589,133.5314,JAPAN,JP,JPN,Kōchi,admin,325560,1392086071
Boa Vista,Boa Vista,2.8200,-60.6719,BRAZIL,BR,BRA,Roraima,admin,326419,1076621300
Bari,Bari,41.1253,16.8667,ITALY,IT,ITA,Puglia,admin,323370,1380991126
Pucallpa,Pucallpa,-8.3833,-74.5500,PERU,PE,PER,Ucayali,admin,326040,1604478712
Kuching,Kuching,1.5397,110.3542,MALAYSIA,MY,MYS,Sarawak,admin,325132,1458462262
Caucaia,Caucaia,-3.7328,-38.6558,BRAZIL,BR,BRA,Ceará,,325441,1076870058
Jackson,Jackson,32.3163,-90.2124,UNITED STATES,US,USA,Mississippi,admin,325350,1840014895
Santa Rosa,Santa Rosa,38.4458,-122.7067,UNITED STATES,US,USA,California,,324634,1840021488
Lansing,Lansing,42.7142,-84.5601,UNITED STATES,US,USA,Michigan,admin,324286,1840003102
Naha,Naha,26.2122,127.6789,JAPAN,JP,JPN,Okinawa,admin,316048,1392583118
San Juan,San Juan,18.4037,-66.0636,PUERTO RICO,PR,PRI,Puerto Rico,,323279,1630035577
Lexington,Lexington,38.0423,-84.4587,UNITED STATES,US,USA,Kentucky,,323152,1840015211
Newcastle,Newcastle,-32.9167,151.7500,AUSTRALIA,AU,AUS,New South Wales,,322278,1036468001
Kurgan,Kurgan,55.4408,65.3411,RUSSIA,RU,RUS,Kurganskaya Oblast’,admin,322042,1643201853
Uruapan,Uruapan,19.4208,-102.0628,MEXICO,MX,MEX,Michoacán de Ocampo,minor,315350,1484051478
Ann Arbor,Ann Arbor,42.2755,-83.7312,UNITED STATES,US,USA,Michigan,,322267,1840003172
San Salvador de Jujuy,San Salvador de Jujuy,-24.1856,-65.2994,ARGENTINA,AR,ARG,Jujuy,admin,321789,1032815808
Timişoara,Timisoara,45.7597,21.2300,ROMANIA,RO,ROU,Timiş,admin,319279,1642603121
Córdoba,Cordoba,37.8845,-4.7796,SPAIN,ES,ESP,Andalusia,minor,321376,1724706440
Tapachula,Tapachula,14.9000,-92.2667,MEXICO,MX,MEX,Chiapas,minor,320451,1484997178
Cherepovets,Cherepovets,59.1333,37.9167,RUSSIA,RU,RUS,Vologodskaya Oblast’,,318856,1643937680
Poltava,Poltava,49.5744,34.5686,UKRAINE,UA,UKR,Poltavs’ka Oblast’,admin,317847,1804547489
Henderson,Henderson,36.0133,-115.0380,UNITED STATES,US,USA,Nevada,,320189,1840020361
Coatzacoalcos,Coatzacoalcos,18.1500,-94.4333,MEXICO,MX,MEX,Veracruz,minor,319187,1484016854
Huntsville,Huntsville,34.6988,-86.6412,UNITED STATES,US,USA,Alabama,,319249,1840005061
Tampico,Tampico,22.2553,-97.8686,MEXICO,MX,MEX,Tamaulipas,minor,314418,1484060031
Cluj-Napoca,Cluj-Napoca,46.7667,23.6000,ROMANIA,RO,ROU,Cluj,admin,316748,1642503974
General Trias,General Trias,14.3833,120.8833,PHILIPPINES,PH,PHL,Cavite,,314303,1608826995
Cirebon,Cirebon,-6.7167,108.5667,INDONESIA,ID,IDN,Jawa Barat,,316126,1360011375
Cà Mau,Ca Mau,9.1833,105.1500,VIETNAM,VN,VNM,Cà Mau,admin,315270,1704320474
Cabuyao,Cabuyao,14.2750,121.1250,PHILIPPINES,PH,PHL,Laguna,,308745,1608604441
Vologda,Vologda,59.2167,39.9000,RUSSIA,RU,RUS,Vologodskaya Oblast’,admin,313012,1643013685
Saransk,Saransk,54.1833,45.1833,RUSSIA,RU,RUS,Mordoviya,admin,314789,1643003229
Mobile,Mobile,30.6783,-88.1162,UNITED STATES,US,USA,Alabama,,315502,1840006009
Münster,Munster,51.9625,7.6256,GERMANY,DE,DEU,North Rhine-Westphalia,minor,314319,1276714504
Toshima,Toshima,35.7333,139.7167,JAPAN,JP,JPN,Tōkyō,,297954,1392793312
Karlsruhe,Karlsruhe,49.0167,8.4000,GERMANY,DE,DEU,Baden-Württemberg,minor,313092,1276923210
Orël,Orel,52.9686,36.0694,RUSSIA,RU,RUS,Orlovskaya Oblast’,admin,311625,1643703818
Vitória da Conquista,Vitoria da Conquista,-14.8661,-40.8394,BRAZIL,BR,BRA,Bahia,,308204,1076812020
Guarujá,Guaruja,-23.9936,-46.2564,BRAZIL,BR,BRA,São Paulo,,311230,1076832747
Catania,Catania,37.5027,15.0873,ITALY,IT,ITA,Sicilia,minor,311584,1380562508
Fort Collins,Fort Collins,40.5478,-105.0656,UNITED STATES,US,USA,Colorado,,312666,1840020151
Port Elizabeth,Port Elizabeth,-33.9581,25.6000,SOUTH AFRICA,ZA,ZAF,Eastern Cape,,312392,1710918997
Alanya,Alanya,36.5436,31.9997,TURKEY,TR,TUR,Antalya,minor,312319,1792233416
Asheville,Asheville,35.5704,-82.5536,UNITED STATES,US,USA,North Carolina,,312507,1840013411
Santa Clarita,Santa Clarita,34.4175,-118.4964,UNITED STATES,US,USA,California,,312446,1840021864
Quy Nhơn,Quy Nhon,13.7696,109.2314,VIETNAM,VN,VNM,Bình Định,admin,311000,1704056461
Yokkaichi,Yokkaichi,34.9667,136.6167,JAPAN,JP,JPN,Mie,,310263,1392198395
Chalco,Chalco,19.2647,-98.8975,MEXICO,MX,MEX,México,minor,310130,1484834149
Mannheim,Mannheim,49.4878,8.4661,GERMANY,DE,DEU,Baden-Württemberg,minor,309370,1276150104
Kasugai,Kasugai,35.2500,136.9667,JAPAN,JP,JPN,Aichi,,306449,1392431449
Sapele,Sapele,5.8904,5.6800,NIGERIA,NG,NGA,Delta,minor,309162,1566310893
Blumenau,Blumenau,-26.9189,-49.0658,BRAZIL,BR,BRA,Santa Catarina,,309011,1076618665
St. Catharines,St. Catharines,43.1833,-79.2333,CANADA,CA,CAN,Ontario,,309319,1124140229
Niagara Falls,Niagara Falls,43.0600,-79.1067,CANADA,CA,CAN,Ontario,,308596,1124704011
San Fernando,San Fernando,15.0333,120.6833,PHILIPPINES,PH,PHL,Pampanga,admin,306659,1608862124
St. Paul,St. Paul,44.9477,-93.1040,UNITED STATES,US,USA,Minnesota,admin,308096,1840008940
Vladikavkaz,Vladikavkaz,43.0400,44.6775,RUSSIA,RU,RUS,North Ossetia,admin,306978,1643438348
Yakutsk,Yakutsk,62.0272,129.7319,RUSSIA,RU,RUS,Sakha (Yakutiya),admin,307911,1643163546
Minna,Minna,9.6139,6.5569,NIGERIA,NG,NGA,Niger,admin,304113,1566285237
Podolsk,Podolsk,55.4297,37.5444,RUSSIA,RU,RUS,Moskovskaya Oblast’,,299660,1643693800
Ciudad Victoria,Ciudad Victoria,23.7333,-99.1333,MEXICO,MX,MEX,Tamaulipas,admin,305155,1484616519
Vaughan,Vaughan,43.8333,-79.5000,CANADA,CA,CAN,Ontario,,306233,1124000141
Ōakashichō,Oakashicho,34.6431,134.9975,JAPAN,JP,JPN,Hyōgo,,299699,1392000137
Pekalongan,Pekalongan,-6.8883,109.6753,INDONESIA,ID,IDN,Jawa Tengah,,298386,1360039434
Adıyaman,Adiyaman,37.7644,38.2763,TURKEY,TR,TUR,Adıyaman,admin,304615,1792686663
Vila Nova de Gaia,Vila Nova de Gaia,41.1333,-8.6167,PORTUGAL,PT,PRT,Porto,minor,302295,1620040225
Cabanatuan City,Cabanatuan City,15.4833,120.9667,PHILIPPINES,PH,PHL,Nueva Ecija,,302231,1608247694
Paulista,Paulista,-7.9408,-34.8728,BRAZIL,BR,BRA,Pernambuco,,300466,1076183876
Oaxaca,Oaxaca,17.0833,-96.7500,MEXICO,MX,MEX,Oaxaca,admin,300050,1484301467
Armenia,Armenia,4.5389,-75.6725,COLOMBIA,CO,COL,Quindío,admin,301226,1170398459
Akita,Akita,39.7197,140.1025,JAPAN,JP,JPN,Akita,admin,302984,1392129688
San Bernardo,San Bernardo,-33.6000,-70.7167,CHILE,CL,CHL,Región Metropolitana,minor,301313,1152050361
Wollongong,Wollongong,-34.4331,150.8831,AUSTRALIA,AU,AUS,New South Wales,,302739,1036502269
Brest,Brest,48.3900,-4.4900,FRANCE,FR,FRA,Bretagne,minor,300300,1250882453
Awka,Awka,6.2000,7.0667,NIGERIA,NG,NGA,Anambra,admin,301657,1566560581
Taubaté,Taubate,-23.0333,-45.5500,BRAZIL,BR,BRA,São Paulo,,302331,1076146252
Antioch,Antioch,37.9789,-121.7958,UNITED STATES,US,USA,California,,302419,1840018903
Lakeland,Lakeland,28.0556,-81.9545,UNITED STATES,US,USA,Florida,,302284,1840015108
Sóc Trăng,Soc Trang,9.6000,105.9719,VIETNAM,VN,VNM,Sóc Trăng,admin,300000,1704758756
Popayán,Popayan,2.4411,-76.6061,COLOMBIA,CO,COL,Cauca,admin,300837,1170764265
Praia Grande,Praia Grande,-24.0058,-46.4028,BRAZIL,BR,BRA,São Paulo,,299261,1076548222
Cotabato,Cotabato,7.2167,124.2500,PHILIPPINES,PH,PHL,Cotabato,admin,299438,1608753128
Valladolid,Valladolid,41.6528,-4.7236,SPAIN,ES,ESP,Castille-Leon,admin,299265,1724133771
Mossoró,Mossoro,-5.1878,-37.3439,BRAZIL,BR,BRA,Rio Grande do Norte,,300618,1076461194
Białystok,Bialystok,53.1167,23.1667,POLAND,PL,POL,Podlaskie,admin,297554,1616443575
Murmansk,Murmansk,68.9667,33.0833,RUSSIA,RU,RUS,Murmanskaya Oblast’,admin,298096,1643755251
Afyonkarahisar,Afyonkarahisar,38.7581,30.5386,TURKEY,TR,TUR,Afyonkarahisar,admin,299673,1792855788
Vigo,Vigo,42.2314,-8.7124,SPAIN,ES,ESP,Galicia,,296692,1724045676
Jember,Jember,-8.1727,113.6873,INDONESIA,ID,IDN,Jawa Timur,minor,298585,1360316553
Bahía Blanca,Bahia Blanca,-38.7167,-62.2667,ARGENTINA,AR,ARG,Buenos Aires,minor,299101,1032795766
İskenderun,Iskenderun,36.5804,36.1700,TURKEY,TR,TUR,Hatay,minor,297943,1792962911
Petrópolis,Petropolis,-22.5050,-43.1789,BRAZIL,BR,BRA,Rio de Janeiro,,298142,1076352504
Chernihiv,Chernihiv,51.4939,31.2947,UKRAINE,UA,UKR,Chernihivs’ka Oblast’,admin,294522,1804565996
Comilla,Comilla,23.4500,91.2000,BANGLADESH,BD,BGD,Chittagong,,296010,1050609330
Oyster Bay,Oyster Bay,40.7845,-73.5139,UNITED STATES,US,USA,New York,,297822,1840058379
Valparaíso,Valparaiso,-33.0458,-71.6197,CHILE,CL,CHL,Valparaíso,admin,296655,1152337970
Augsburg,Augsburg,48.3717,10.8983,GERMANY,DE,DEU,Bavaria,minor,295135,1276314100
Limeira,Limeira,-22.5647,-47.4017,BRAZIL,BR,BRA,São Paulo,,296440,1076508566
Rangpur,Rangpur,25.7500,89.2500,BANGLADESH,BD,BGD,Rangpur,admin,294265,1050667437
Aksaray,Aksaray,38.3686,34.0297,TURKEY,TR,TUR,Aksaray,admin,295351,1792650390
Navotas,Navotas,14.6667,120.9417,PHILIPPINES,PH,PHL,Navotas,admin,249463,1608538447
Çorum,Corum,40.5489,34.9533,TURKEY,TR,TUR,Çorum,admin,294807,1792065200
Tambov,Tambov,52.7167,41.4333,RUSSIA,RU,RUS,Tambovskaya Oblast’,admin,290365,1643802687
Iaşi,Iasi,47.1622,27.5889,ROMANIA,RO,ROU,Iaşi,admin,290422,1642367695
Thiès,Thies,14.7833,-16.9167,SENEGAL,SN,SEN,Thiès,admin,293001,1686527948
Makurdi,Makurdi,7.7300,8.5300,NIGERIA,NG,NGA,Benue,admin,292645,1566873994
Kherson,Kherson,46.6333,32.6000,UKRAINE,UA,UKR,Khersons’ka Oblast’,admin,291428,1804514036
Groznyy,Groznyy,43.3125,45.6986,RUSSIA,RU,RUS,Chechnya,admin,291687,1643049853
Resistencia,Resistencia,-27.4514,-58.9867,ARGENTINA,AR,ARG,Chaco,admin,291720,1032720891
Braşov,Brasov,45.6500,25.6000,ROMANIA,RO,ROU,Braşov,admin,290743,1642328429
Kassel,Kassel,51.3166,9.4912,GERMANY,DE,DEU,Hesse,minor,289924,1276791686
Juliaca,Juliaca,-15.4908,-70.1269,PERU,PE,PER,Puno,,291189,1604174464
Morioka,Morioka,39.6833,141.1500,JAPAN,JP,JPN,Iwate,admin,290553,1392981957
Trenton,Trenton,40.2236,-74.7641,UNITED STATES,US,USA,New Jersey,admin,290716,1840001383
Kaunas,Kaunas,54.9000,23.9333,LITHUANIA,LT,LTU,Kauno Miestas,admin,288466,1440302852
Mulhouse,Mulhouse,47.7500,7.3400,FRANCE,FR,FRA,Grand Est,minor,285121,1250218452
Sekondi,Sekondi,4.9433,-1.7040,GHANA,GH,GHA,Western,admin,286248,1288186231
Lincoln,Lincoln,40.8090,-96.6788,UNITED STATES,US,USA,Nebraska,admin,289490,1840009357
Springfield,Springfield,37.1943,-93.2916,UNITED STATES,US,USA,Missouri,,288090,1840009904
Anchorage,Anchorage,61.1508,-149.1091,UNITED STATES,US,USA,Alaska,,288000,1840023385
Sincelejo,Sincelejo,9.2994,-75.3958,COLOMBIA,CO,COL,Sucre,admin,286716,1170364198
Plano,Plano,33.0502,-96.7487,UNITED STATES,US,USA,Texas,,287677,1840020662
Irvine,Irvine,33.6772,-117.7738,UNITED STATES,US,USA,California,,287401,1840019325
Camaçari,Camacari,-12.6978,-38.3239,BRAZIL,BR,BRA,Bahia,,286919,1076610862
Orléans,Orleans,47.9025,1.9090,FRANCE,FR,FRA,Centre-Val de Loire,admin,282828,1250441405
Binangonan,Binangonan,14.4514,121.1919,PHILIPPINES,PH,PHL,Rizal,,282474,1608102511
Suzano,Suzano,-23.5428,-46.3108,BRAZIL,BR,BRA,São Paulo,,285280,1076830201
Tacna,Tacna,-18.0556,-70.2483,PERU,PE,PER,Tacna,admin,286240,1604388134
Constanţa,Constanta,44.1733,28.6383,ROMANIA,RO,ROU,Constanţa,admin,283872,1642851858
Haifa,Haifa,32.8000,34.9833,ISRAEL,IL,ISR,Haifa,admin,281087,1376133727
Coacalco,Coacalco,19.6333,-99.0931,MEXICO,MX,MEX,México,minor,278064,1484929782
Crato,Crato,-7.2342,-39.4094,BRAZIL,BR,BRA,Ceará,,273883,1076894967
Limoges,Limoges,45.8353,1.2625,FRANCE,FR,FRA,Nouvelle-Aquitaine,minor,283823,1250736774
Davenport,Davenport,41.5563,-90.6052,UNITED STATES,US,USA,Iowa,,285362,1840007081
Fukushima,Fukushima,37.7608,140.4733,JAPAN,JP,JPN,Fukushima,admin,284282,1392570027
Āīzawl,Aizawl,23.7104,92.7200,INDIA,IN,IND,Mizoram,admin,283021,1356342768
Santa Maria,Santa Maria,-29.6839,-53.8069,BRAZIL,BR,BRA,Rio Grande do Sul,,283677,1076178738
Taboão da Serra,Taboao da Serra,-23.6019,-46.7528,BRAZIL,BR,BRA,São Paulo,,272177,1076000585
Marabá,Maraba,-5.3689,-49.1178,BRAZIL,BR,BRA,Pará,,283542,1076974144
Temuco,Temuco,-38.7399,-72.5901,CHILE,CL,CHL,Araucanía,admin,282415,1152318955
Sterlitamak,Sterlitamak,53.6333,55.9500,RUSSIA,RU,RUS,Bashkortostan,,280233,1643812452
Rockford,Rockford,42.2597,-89.0641,UNITED STATES,US,USA,Illinois,,282762,1840009132
Tegal,Tegal,-6.8667,109.1333,INDONESIA,ID,IDN,Jawa Tengah,,275789,1360035814
Ica,Ica,-14.0667,-75.7333,PERU,PE,PER,Ica,admin,282407,1604607907
Newark,Newark,40.7245,-74.1725,UNITED STATES,US,USA,New Jersey,,282011,1840002791
Pematangsiantar,Pematangsiantar,2.9600,99.0600,INDONESIA,ID,IDN,Sumatera Utara,,278055,1360769496
Long Xuyên,Long Xuyen,10.3686,105.4234,VIETNAM,VN,VNM,An Giang,admin,278658,1704453892
Petrozavodsk,Petrozavodsk,61.7833,34.3500,RUSSIA,RU,RUS,Kareliya,admin,278551,1643319966
South Bend,South Bend,41.6767,-86.2696,UNITED STATES,US,USA,Indiana,,280498,1840009241
Shreveport,Shreveport,32.4656,-93.7956,UNITED STATES,US,USA,Louisiana,,280062,1840015768
Việt Trì,Viet Tri,21.3136,105.3947,VIETNAM,VN,VNM,Phú Thọ,admin,277539,1704332956
Cherkasy,Cherkasy,49.4444,32.0597,UKRAINE,UA,UKR,Cherkas’ka Oblast’,admin,276360,1804459212
Wiesbaden,Wiesbaden,50.0825,8.2400,GERMANY,DE,DEU,Hesse,admin,278342,1276652118
Kostroma,Kostroma,57.7667,40.9333,RUSSIA,RU,RUS,Kostromskaya Oblast’,admin,277648,1643869304
Round Lake Beach,Round Lake Beach,42.3790,-88.0811,UNITED STATES,US,USA,Illinois,,279381,1840011171
Governador Valadares,Governador Valadares,-18.8508,-41.9489,BRAZIL,BR,BRA,Minas Gerais,,278363,1076271003
Katowice,Katowice,50.2500,19.0000,POLAND,PL,POL,Śląskie,admin,276499,1616798495
Sfax,Sfax,34.7400,10.7600,TUNISIA,TN,TUN,Sfax,admin,272801,1788741658
Nizhnevartovsk,Nizhnevartovsk,60.9389,76.5950,RUSSIA,RU,RUS,Khanty-Mansiyskiy Avtonomnyy Okrug-Yugra,,277668,1643786132
Pachuca,Pachuca,20.1000,-98.7500,MEXICO,MX,MEX,Hidalgo,admin,277375,1484575026
Juazeiro do Norte,Juazeiro do Norte,-7.2128,-39.3150,BRAZIL,BR,BRA,Ceará,,276264,1076912078
Khmelnytskyi,Khmelnytskyi,49.4200,27.0000,UKRAINE,UA,UKR,Khmel’nyts’ka Oblast’,admin,274176,1804347108
Owo,Owo,7.1962,5.5868,NIGERIA,NG,NGA,Ondo,minor,276574,1566833788
Savannah,Savannah,32.0281,-81.1784,UNITED STATES,US,USA,Georgia,,276295,1840015830
Posadas,Posadas,-27.3667,-55.8969,ARGENTINA,AR,ARG,Misiones,admin,275988,1032970696
Gatineau,Gatineau,45.4833,-75.6500,CANADA,CA,CAN,Quebec,,276245,1124722129
Windsor,Windsor,42.2833,-83.0000,CANADA,CA,CAN,Ontario,,276165,1124261024
Myrtle Beach,Myrtle Beach,33.7096,-78.8843,UNITED STATES,US,USA,South Carolina,,275579,1840014717
Tehuacán,Tehuacan,18.4617,-97.3928,MEXICO,MX,MEX,Puebla,minor,274906,1484817336
Chula Vista,Chula Vista,32.6281,-117.0145,UNITED STATES,US,USA,California,,274492,1840019350
Crato,Crato,-7.4639,-63.0400,BRAZIL,BR,BRA,Amazonas,,273883,1076425706
Derby,Derby,52.9167,-1.4667,UNITED KINGDOM,GB,GBR,Derby,,270500,1826333435
Tsu,Tsu,34.7186,136.5056,JAPAN,JP,JPN,Mie,admin,273267,1392082102
Eugene,Eugene,44.0563,-123.1173,UNITED STATES,US,USA,Oregon,,273439,1840020007
Gijón,Gijon,43.5333,-5.7000,SPAIN,ES,ESP,Asturias,,271780,1724170659
Chiayi,Chiayi,23.4800,120.4497,TAIWAN,TW,TWN,Chiayi,admin,268622,1158867217
Palmas,Palmas,-10.2128,-48.3603,BRAZIL,BR,BRA,Tocantins,admin,272726,1076052802
Craiova,Craiova,44.3333,23.8167,ROMANIA,RO,ROU,Dolj,admin,269506,1642859458
Sorong,Sorong,-0.8667,131.2500,INDONESIA,ID,IDN,Papua Barat,,272349,1360018780
Majene,Majene,-3.5336,118.9660,INDONESIA,ID,IDN,Sulawesi Barat,minor,272377,1360498576
Aomori,Aomori,40.8222,140.7475,JAPAN,JP,JPN,Aomori,admin,271962,1392083898
Thái Bình,Thai Binh,20.4461,106.3422,VIETNAM,VN,VNM,Thái Bình,admin,268167,1704716027
Minato,Minato,35.6581,139.7514,JAPAN,JP,JPN,Tōkyō,,258105,1392294093
Binjai,Binjai,3.6000,98.4853,INDONESIA,ID,IDN,Sumatera Utara,,269053,1360884608
Fuchū,Fuchu,35.6689,139.4778,JAPAN,JP,JPN,Tōkyō,,263093,1392370709
Brāhmanbāria,Brahmanbaria,23.9667,91.1000,BANGLADESH,BD,BGD,Chittagong,,268279,1050193121
Imphāl,Imphal,24.8200,93.9500,INDIA,IN,IND,Manipur,admin,268243,1356107172
Plymouth,Plymouth,50.3714,-4.1422,UNITED KINGDOM,GB,GBR,Plymouth,,267918,1826947183
Santo Domingo de los Colorados,Santo Domingo de los Colorados,-0.2542,-79.1719,ECUADOR,EC,ECU,Santo Domingo de los Tsáchilas,admin,270875,1218148017
Novorossiysk,Novorossiysk,44.7167,37.7667,RUSSIA,RU,RUS,Krasnodarskiy Kray,,270774,1643087180
Zhytomyr,Zhytomyr,50.2544,28.6578,UKRAINE,UA,UKR,Zhytomyrs’ka Oblast’,admin,266936,1804540656
Gombe,Gombe,10.2904,11.1700,NIGERIA,NG,NGA,Gombe,admin,270366,1566855445
Mito,Mito,36.3667,140.4667,JAPAN,JP,JPN,Ibaraki,admin,269103,1392665227
Espoo,Espoo,60.2100,24.6600,FINLAND,FI,FIN,Uusimaa,minor,269802,1246357316
Floridablanca,Floridablanca,7.0697,-73.0978,COLOMBIA,CO,COL,Santander,minor,267170,1170331200
Lucena,Lucena,13.9333,121.6167,PHILIPPINES,PH,PHL,Lucena,admin,266248,1608000461
Canton,Canton,40.8075,-81.3677,UNITED STATES,US,USA,Ohio,,269418,1840000963
Yoshkar-Ola,Yoshkar-Ola,56.6328,47.8958,RUSSIA,RU,RUS,Mariy-El,admin,266675,1643701904
Parnamirim,Parnamirim,-5.9158,-35.2628,BRAZIL,BR,BRA,Rio Grande do Norte,,267036,1076600360
Nalchik,Nalchik,43.4833,43.6167,RUSSIA,RU,RUS,Kabardino-Balkariya,admin,265162,1643746064
Ichihara,Ichihara,35.4981,140.1156,JAPAN,JP,JPN,Chiba,,268038,1392167256
Salamanca,Salamanca,20.5703,-101.1972,MEXICO,MX,MEX,Guanajuato,minor,260759,1484741627
İnegöl,Inegol,40.0806,29.5097,TURKEY,TR,TUR,Bursa,minor,268155,1792592205
Chernivtsi,Chernivtsi,48.2908,25.9344,UKRAINE,UA,UKR,Chernivets’ka Oblast’,admin,266550,1804652872
Sumaré,Sumare,-22.8219,-47.2669,BRAZIL,BR,BRA,São Paulo,,265955,1076684312
Lubbock,Lubbock,33.5659,-101.8878,UNITED STATES,US,USA,Texas,,267648,1840020604
Sumy,Sumy,50.9068,34.7992,UKRAINE,UA,UKR,Sums’ka Oblast’,admin,265758,1804489982
San Pablo,San Pablo,14.0700,121.3250,PHILIPPINES,PH,PHL,Laguna,,266068,1608801564
Reading,Reading,40.3400,-75.9267,UNITED STATES,US,USA,Pennsylvania,,267155,1840001185
Winter Haven,Winter Haven,28.0118,-81.7017,UNITED STATES,US,USA,Florida,,267069,1840015970
Ipatinga,Ipatinga,-19.4678,-42.5369,BRAZIL,BR,BRA,Minas Gerais,,265409,1076484921
Kütahya,Kutahya,39.4242,29.9833,TURKEY,TR,TUR,Kütahya,admin,266784,1792671735
Salem,Salem,44.9231,-123.0246,UNITED STATES,US,USA,Oregon,admin,266804,1840021224
Graz,Graz,47.0749,15.4409,AUSTRIA,AT,AUT,Steiermark,admin,263234,1040184559
St. Petersburg,St. Petersburg,27.7931,-82.6652,UNITED STATES,US,USA,Florida,,265351,1840015977
Engels,Engels,51.4667,46.1167,RUSSIA,RU,RUS,Saratovskaya Oblast’,,264990,1643653861
Oruro,Oruro,-17.9667,-67.1167,BOLIVIA,BO,BOL,Oruro,,264683,1068626742
Osmaniye,Osmaniye,37.0750,36.2500,TURKEY,TR,TUR,Osmaniye,admin,264373,1792340207
Lafayette,Lafayette,30.2084,-92.0323,UNITED STATES,US,USA,Louisiana,,264357,1840015044
Dumai,Dumai,1.6667,101.4500,INDONESIA,ID,IDN,Riau,,264084,1360153292
Gent,Gent,51.0536,3.7253,BELGIUM,BE,BEL,Flanders,minor,262219,1056062897
Geelong,Geelong,-38.1500,144.3500,AUSTRALIA,AU,AUS,Victoria,,263280,1036870987
Çorlu,Corlu,41.1597,27.8028,TURKEY,TR,TUR,Tekirdağ,minor,262862,1792855069
Gelsenkirchen,Gelsenkirchen,51.5167,7.1000,GERMANY,DE,DEU,North Rhine-Westphalia,minor,260654,1276788537
Bordeaux,Bordeaux,44.8400,-0.5800,FRANCE,FR,FRA,Nouvelle-Aquitaine,admin,257804,1250449238
Mönchengladbach,Monchengladbach,51.2000,6.4333,GERMANY,DE,DEU,North Rhine-Westphalia,minor,261454,1276982173
Volta Redonda,Volta Redonda,-22.5231,-44.1042,BRAZIL,BR,BRA,Rio de Janeiro,,262970,1076343513
Barueri,Barueri,-23.5111,-46.8764,BRAZIL,BR,BRA,São Paulo,,262275,1076211114
Laredo,Laredo,27.5629,-99.4875,UNITED STATES,US,USA,Texas,,262491,1840021002
Nonthaburi,Nonthaburi,13.8667,100.5167,THAILAND,TH,THA,Nonthaburi,admin,255671,1764667935
Jersey City,Jersey City,40.7161,-74.0682,UNITED STATES,US,USA,New Jersey,,262075,1840003600
Venice,Venice,45.4397,12.3319,ITALY,IT,ITA,Veneto,admin,261321,1380660414
Quảng Ngãi,Quang Ngai,15.1206,108.7922,VIETNAM,VN,VNM,Quảng Ngãi,admin,260252,1704029499
Concord,Concord,35.3933,-80.6366,UNITED STATES,US,USA,North Carolina,,261801,1840014559
Ciudad Benito Juárez,Ciudad Benito Juarez,25.6500,-100.0833,MEXICO,MX,MEX,Nuevo León,minor,260683,1484140727
Cascavel,Cascavel,-24.9558,-53.4553,BRAZIL,BR,BRA,Paraná,,257172,1076509946
Hiratsuka,Hiratsuka,35.3231,139.3422,JAPAN,JP,JPN,Kanagawa,,257662,1392311050
Columbus,Columbus,32.5100,-84.8771,UNITED STATES,US,USA,Georgia,,261445,1840014887
Chandler,Chandler,33.2826,-111.8516,UNITED STATES,US,USA,Arizona,,261165,1840019309
Sakarya,Sakarya,40.7778,30.4028,TURKEY,TR,TUR,Sakarya,admin,260109,1792191587
Tagum,Tagum,7.4478,125.8078,PHILIPPINES,PH,PHL,Davao del Norte,admin,259444,1608755366
Fukui,Fukui,36.0641,136.2196,JAPAN,JP,JPN,Fukui,admin,260263,1392897510
Sōka,Soka,35.8256,139.8056,JAPAN,JP,JPN,Saitama,,251390,1392354483
Ciudad Santa Catarina,Ciudad Santa Catarina,25.6833,-100.4500,MEXICO,MX,MEX,Nuevo León,minor,259896,1484858068
Los Mochis,Los Mochis,25.7835,-108.9937,MEXICO,MX,MEX,Sinaloa,minor,256613,1484443585
Imperatriz,Imperatriz,-5.5258,-47.4758,BRAZIL,BR,BRA,Maranhão,,259337,1076486025
Texcoco,Texcoco,19.5200,-98.8800,MEXICO,MX,MEX,México,minor,259308,1484653265
Santa Maria,Santa Maria,14.8183,120.9563,PHILIPPINES,PH,PHL,Bulacan,,256454,1608186208
Isparta,Isparta,37.7667,30.5500,TURKEY,TR,TUR,Isparta,admin,258375,1792105249
Foz do Iguaçu,Foz do Iguacu,-25.5400,-54.5875,BRAZIL,BR,BRA,Paraná,,258248,1076025805
Verona,Verona,45.4386,10.9928,ITALY,IT,ITA,Veneto,minor,257275,1380324879
McKinney,McKinney,33.2015,-96.6669,UNITED STATES,US,USA,Texas,,258277,1840020657
Playa del Carmen,Playa del Carmen,20.6275,-87.0811,MEXICO,MX,MEX,Quintana Roo,minor,252087,1484559458
Scottsdale,Scottsdale,33.6872,-111.8651,UNITED STATES,US,USA,Arizona,,258069,1840021940
Wolverhampton,Wolverhampton,52.5833,-2.1333,UNITED KINGDOM,GB,GBR,Wolverhampton,,254406,1826636841
Killeen,Killeen,31.0754,-97.7296,UNITED STATES,US,USA,Texas,,258009,1840020854
Bergen,Bergen,60.3925,5.3233,NORWAY,NO,NOR,Hordaland,admin,257087,1578465701
Tallahassee,Tallahassee,30.4551,-84.2526,UNITED STATES,US,USA,Florida,admin,257601,1840015913
Horlivka,Horlivka,48.3336,38.0925,UKRAINE,UA,UKR,Donets’ka Oblast’,minor,256714,1804235146
Ondo,Ondo,7.0904,4.8400,NIGERIA,NG,NGA,Ondo,minor,257005,1566993724
San Mateo,San Mateo,14.6969,121.1219,PHILIPPINES,PH,PHL,Rizal,,252527,1608557779
Ấp Đa Lợi,Ap Da Loi,11.9304,108.4200,VIETNAM,VN,VNM,Lâm Đồng,,256019,1704613422
Viamão,Viamao,-30.0808,-51.0228,BRAZIL,BR,BRA,Rio Grande do Sul,,256302,1076314777
Peoria,Peoria,40.7520,-89.6153,UNITED STATES,US,USA,Illinois,,256286,1840009373
Gravataí,Gravatai,-29.9433,-50.9939,BRAZIL,BR,BRA,Rio Grande do Sul,,255660,1076919841
